id,name,city_id,pincode,latitude,longitude,phone_no,status,user_id,default_image_file_name,default_image_content_type,default_image_file_size,default_image_updated_at,address,areahop_id,neighborhood,state,website,business_email
6,Shiro,1,560001,12.971132,77.597251,"080 4173 8864",1,0,NULL,NULL,NULL,NULL,"222, 3rd Floor,Triple Height, Vittal Mallya Road",6aea06e4-ec685103-687674-1454668322,"Vittal Mallya Road",,,
10,"Indigo Live Music Bar",1,560095,12.932835,77.614195,"080 2553 5330",1,0,NULL,NULL,NULL,NULL,"71/72, Jyoti Nivas College Road, 6th Block, Industrial Layout, Koramangala",da3c8d78-c9ae10a7-f21cb7-1454668323,Koramangala,,http://www.indigolive.in/,
11,Rewind,1,560043,13.015904,77.637862,"+91 9886653578",1,0,NULL,NULL,NULL,NULL,"315, HRBR Layout, 2nd Block, 7th Main",36e3e779-f04cf5b1-946231-1454668323,Kammanahalli,Karnataka,,
369,"Goli Vada Pav No. 1",1,560001,12.921646,77.592438,"097395 82595",1,0,NULL,NULL,NULL,NULL,"1332 41st Cross, 24th A Main, Near Jain College, Next To Big Bazar",7c1b548d-8e31cd2f-340459-1454668595,Jayanagar,Karnataka,NULL,NULL
1499,"The Forum Mall",1,560029,12.934604,77.611317,"080 2206 7813",1,0,NULL,NULL,NULL,NULL,"21 Hosur Main Road",91ba1ca5-4976354d-8ce741-1454669912,Koramangala,Karnataka,NULL,NULL
1522,"Phoenix Marketcity",1,560048,12.990873,77.721890,"080 4067 7300",1,0,NULL,NULL,NULL,NULL,"Whitefield Main Road",ab3c48f9-ebbb391e-4df613-1454669924,Whitefield,Karnataka,,
1921,"Millennium Optiks",1,560102,12.976594,77.599271,"080 4130 3045",1,0,thumb_IMG_6219_1024.jpg,image/jpeg,280808,"2016-02-12 17:09:15","27th Main Road, Sector 1",002c9d2b-bbf51483-b04f14-1454670065,"HSR Layout",Karnataka,,
2322,"O2 Spa",1,560001,12.971132,77.597251,"099023 31966",1,0,NULL,NULL,NULL,NULL,"Mezzanine Floor Property No.5, Embassy Chambers, Vittal Mallya Road",932b2505-81422831-9c7325-1454670638,"Ashok Nagar",Karnataka,,
2404,Anoo's,1,560029,12.934257,77.604399,"080 2550 2626",1,0,NULL,NULL,NULL,NULL,"S.V. Tower, Dairy Circle Road, Opposite Forum Mall, Next To Skc, Koramangala",20629616-7d5fa0c3-d8e4ce-1454670659,Koramangala,Karnataka,,
3153,"Garuda Autocraft Pvt. Ltd.",1,560027,12.959089,77.586098,"080 2221 5782",1,0,NULL,NULL,NULL,NULL,"29, Lalbagh Main Road",965d1eb3-46ffa34f-351edf-1454670910,"Lalbagh Road",Karnataka,,
4001,"8C Super Market",1,560102,12.917534,77.650457,"+91 9731888649",1,86,thumb_IMG_6282_1024.jpg,image/jpeg,159063,"2016-02-12 18:01:39","24th Main Rd, Sector 2 C, Sector 1",NULL,"HSR Layout",NULL,,
4002,"154 Breakfast Club",1,560095,12.936915,77.640726,8049652862,1,0,NULL,NULL,NULL,NULL,"154, 8th Main Road, 3rd Block, Bangalore",NULL,Koramangala,NULL,,
4003,"Natural Ice Cream",1,560034,12.930091,77.633149,,1,87,NULL,NULL,NULL,NULL,"1021, 80 Feet Road, 1st Block",NULL,Koramangala,NULL,,
4004,Cinnamon,1,560102,12.908136,77.647608,08049653542,1,87,NULL,NULL,NULL,NULL,"78 Ground Floor, Right Wing, 11th Main, 14th Cross",NULL,"HSR Layout",NULL,,
4005,"Sumangal - Taste of Purity",1,560102,12.913771,77.629270,8041150976,1,0,thumb_IMG_6381_1024.jpg,image/jpeg,355137,"2016-02-20 11:02:41","Liss Arcade, 149/A 5th Main Road, Sector 6",NULL,"HSR Layout",NULL,,
4006,"BHiVE Workspace",1,560102,12.915827,77.626137,"+91 80-88822364",1,86,NULL,NULL,NULL,NULL,"L 148, 5th Main Rd, Block-6",NULL,"HSR Layout",NULL,www.bhiveworkspace.com/reserve-space/,sales@bhiveworkspace.com
4007,"Arusuvai Arasu Madhuram",1,560078,12.898773,77.576409,"+91 9900162288",1,86,image.jpg,image/jpeg,439693,"2016-02-25 16:42:16","149, Food Days Complex, 1st Floor, 5th Main Road, Sector 6",NULL,"HSR Layout",NULL,,
4018,Bhukkad,1,560034,12.924812,77.633711,"+91 8040 913063",1,0,NULL,NULL,NULL,NULL,"387, 1st Cross, 4th Block, 80 Feet Road",NULL,Koramangala,NULL,www.thebhukkad.com/,
4019,"Safha Fresh",1,560102,12.911862,77.644592,"+91 9591141778",1,93,image.jpeg,image/jpeg,2774069,"2016-02-27 10:56:04","1312, 2nd Sector",NULL,"HSR Layout",NULL,,
4020,"Rajeshwar Home Appliances",1,560102,12.908136,77.647608,"+91 9844741083",1,93,image.jpeg,image/jpeg,2659047,"2016-02-27 12:02:34","64, 24th Main Road, 2nd Sector",NULL,"HSR Layout",NULL,,
4849,"University of Agricultural Sciences",1,560065,13.093580,77.577853,,1,0,NULL,NULL,NULL,NULL,"GKVK Campus Rd, Yashoda Nagar",24d18d01-03e043fe-4f7d5b-1456832634,Yelahanka,Karnataka,NULL,NULL
4902,"Gold's Gym",1,560001,12.976594,77.599271,"080 4242 0606",1,0,NULL,NULL,NULL,NULL,"2631, 27th Main Road, 1st Sector",6991471d-d4670484-82728d-1456833054,"HSR Layout",Karnataka,NULL,NULL
5011,"Hot Tracks",1,560025,12.971559,77.606185,"080 2221 3179",1,0,NULL,NULL,NULL,NULL,"6 Cotton's Complex 15, Residency Road",3918eb4b-bea23ee5-b3330f-1456833086,"Residency Road",Karnataka,NULL,NULL
5109,"Affinity International",1,560095,12.936915,77.640726,080-22067735,1,0,NULL,NULL,NULL,NULL,"1st Floor, The Forum Mall, Hosur Main Road, ",e41f880d-ee990761-2ebb61-1457176020,Koramangala,Karnataka,www.affinityinternatiol.com,NULL
5110,"Affinity International",1,560080,13.010303,77.579602,080-40896600,1,0,NULL,NULL,NULL,NULL,"8th Main, 5th Cross, Sadashivanagar, near Food World, Bangalore",119a8c45-be68e1ae-8c825f-1457176021,Sadashivanagar,Karnataka,www.affinityinternatiol.com,NULL
5111,"Affinity International",1,560066,12.959719,77.747782,080-40961391,1,0,NULL,NULL,NULL,NULL,"2nd floor, Forum Value Mall, 62, Whitefield Main Rd",53382e36-91e1c09a-a94577-1457176021,Whitefield,Karnataka,www.affinityinternatiol.com,NULL
5112,"Affinity International",1,560076,12.884510,77.603552,080-25125199,1,0,NULL,NULL,NULL,NULL,"4, Royal Meenakshi Mall, 2nd Floor, Bannerghatta Road, Bangalore",71bef981-c8c4bba8-99507e-1457176021,Bannerghatta,Karnataka,www.affinityinternatiol.com,NULL
5113,"Affinity International",1,560055,13.007844,77.557663,080-22682189,1,0,NULL,NULL,NULL,NULL,"102, 1st Floor, Orion Mall, Dr Rajkumar Road",1cce4cb6-61100513-bfc95f-1457176022,Malleswaram,Karnataka,www.affinityinternatiol.com,NULL
5118,"Jean-Claude Biguine Salon and Spa",1,560048,12.992990,77.705615,080-67266666,1,0,NULL,NULL,NULL,NULL,"UG 39, Phoenix Market City, Mahadevpura, Whitefield Main Road",50189ed2-40554f2e-fb60fc-1457182540,Whitefield,Karnataka,www.biguineindia.co.in,marketing@biguineindia.com
5119,"Jean-Claude Biguine Salon and Spa",1,560001,12.971225,77.597866,080-41514000,1,0,NULL,NULL,NULL,NULL,"25/3-1, Ground Floor, Lavelle Road",c60a8d44-32b4b46b-ba4e73-1457182540,"Lavelle Road",Karnataka,www.biguineindia.co.in/,marketing@biguineindia.com
5120,"Jean-Claude Biguine Salon and Spa",1,560008,12.962249,77.641709,080-25202520,1,0,NULL,NULL,NULL,NULL,"1214, 100Ft Road, HAL 2nd Stage, Near Domlur Flyover",7d0d7868-6b586724-0c9bb0-1457182541,Indiranagar,Karnataka,www.biguineindia.co.in/,marketing@biguineindia.com
5121,"Jean-Claude Biguine Salon and Spa",1,560095,12.936915,77.640726,080-25702222,1,0,NULL,NULL,NULL,NULL,"115, 7TH block, Opposite Raheja Arcade, Above Starbucks",598d95d2-868510b1-928952-1457182542,Koramangala,Karnataka,www.biguineindia.co.in,marketing@biguineindia.com
5125,"Techsync Solutions Inc",1,560102,12.917534,77.650457,"+91 7411090817",1,86,NULL,NULL,NULL,NULL,"1071, 24th Main Road, Sector 1",NULL,"HSR Layout",NULL,www.techsync.net,info@techsync.net
5127,"YLG Salon",1,560034,12.924812,77.633711,+918042134462,1,87,NULL,NULL,NULL,NULL,"434, 27th Main Road, Sector 1",NULL,"HSR Layout",NULL,www.ylgindia.com,
5137,"B-Enzo Family Salon & Spa",1,560100,12.843064,77.656476,080-49536719,1,0,NULL,NULL,NULL,NULL,"47/10, Bay 4, 1st Floor, SJR Equinox Retail Complex, Near Crown Plaza Phase 1, Electronic City",d075230c-b0c465ba-3584bf-1458022139,"Electronic City",Karnataka,benzo.ecity@gmail.com,www.benzo.in/
5138,"B-Enzo Family Salon & Spa",1,560078,12.914776,77.588259,080-26597779,1,0,NULL,NULL,NULL,NULL,"12th Cross, 23rd main, Near R.V. Dental College, 2nd phase J.P Nagar",4eba5d9c-701576f1-b8736f-1458022139,"JP Nagar",Karnataka,www.benzo.in,benzo.jpn@gmail.com
5139,"B-Enzo Family Salon & Spa",1,560085,12.930605,77.543374,080-41469018,1,0,NULL,NULL,NULL,NULL,"44, 1st Floor Chamundeshwari Complex, 100 Feet Ring Road, 3rd Stage Banashankari, Opposite BMTC bus depot, Next to Kamakya theatre",a651d0a4-32813888-129a8c-1458022139,Banashankari,Karnataka,jyothi.benzo@gmail.com,www.benzo.in/
5140,"B-Enzo Family Salon & Spa",1,560076,12.884510,77.603552,080-42244777,1,0,NULL,NULL,NULL,NULL,"396 1st Floor, 7th Main, 8th cross, Near Health and Glow, BTM 2nd Stage, Above Boots Bazar & Jockey Show Room",d444aefe-53bffa0f-47b8df-1458022140,"BTM Layout",Karnataka,benzo.btm@gmail.com,www.benzo.in/
5141,"B-Enzo Family Salon & Spa",1,560100,12.849848,77.654486,080-66362050,1,0,NULL,NULL,NULL,NULL,"Concorde Manhattans Apartments Club House, Doddathogur, Phase-2, Electronic city, Near Wipro Parking Slot",2f255fe4-9b4948ed-6c9dac-1458022140,"Electronic City",Karnataka,benzo.manhattans@gmail.com,www.benzo.in/
5142,"B-Enzo Family Salon & Spa",1,560061,12.896014,77.549100,-9845967870,1,0,NULL,NULL,NULL,NULL,"4, 1st Floor, BDA 5th Stage, Next to Mahesh PU College, Above State Bank of Mysore, Vasanthapura Main Road,",dab0487c-0e9c1f8f-8fc1ea-1458022140,Vasanthapura,Karnataka,benzovasanthapura@gmail.com,www.benzo.in/
5143,"BB Road Public Toilet",1,560070,12.914930,77.563490,,1,0,NULL,NULL,NULL,NULL,"BB Road Yelanka, Near Post ofiice, Yelanka, Kempegowda Ward",7d5bc5a0-4fc2e8d1-70dafc-1458022140,"Kempegowda Ward",Karnataka,,
5144,"Ayodya Complex Public Toilet",1,560070,12.914930,77.563490,,1,0,NULL,NULL,NULL,NULL,"Suggappa Layout MR., Ayodya Complex, Yelanka, Kempegowda Ward",d10ef7c9-0ebaeeb0-fdf5ae-1458022141,"Kempegowda Ward",Karnataka,,
5145,"Yelanka Hospital Rd Public Toilet",1,560070,12.914930,77.563490,,1,0,NULL,NULL,NULL,NULL,"Hospital Rd Yelanka, Govt. Hospital, Yelanka, Kempegowda Ward",c71e87c7-1a61b184-dcd327-1458022141,"Kempegowda Ward",Karnataka,,
5146,"BBMP Office Road Public Toilet",1,560054,13.034662,77.557205,,1,0,NULL,NULL,NULL,NULL,"BBMP Office Road, BBMP office, Yelanka, Chowdeswari Ward",d5a19275-9992e6aa-9a1c35-1458022141,"Chowdeswari Ward",Karnataka,,
5147,"Masjid Road Public Toilet",1,560097,13.080903,77.556498,,1,0,NULL,NULL,NULL,NULL,"Masjid Rd, Near Chikka bettahalliRd, Yelanka, Atturu",726894d2-57a584a4-578896-1458022141,Atturu,Karnataka,,
5148,"Yelahanka Satellite Town Public Toilet",1,560064,13.097901,77.584430,,1,0,NULL,NULL,NULL,NULL,"Doddaballapura MRnear NES office, Yelanka, Yelahanka Satellite Town",e3e38dd3-61a92423-833502-1458022142,Yelahanka,Karnataka,,
5149,"RTO Complex, Public Toilet",1,560064,13.097901,77.584430,,1,0,NULL,NULL,NULL,NULL,"Yelahanaka new town,opp RTO complex, Yelanka, Yelahanka Satellite Town",7b3f878e-00422b8e-755017-1458022142,Yelahanka,Karnataka,,
5150,"Jakkur Main Raod Public Toilet",1,560064,13.077655,77.599192,,1,0,NULL,NULL,NULL,NULL,"Jakkur main Raod, jakkur 18th Cross, Yelanka, Jakkuru",363311f8-7672fa34-9825e9-1458022142,Jakkuru,Karnataka,,
5151,"Bagalur Main Raod Public Toilet",1,560064,13.077655,77.599192,,1,0,NULL,NULL,NULL,NULL,"Bagalur Main Raod, Vinayakanagara, Yelanka, Jakkuru",3cfea6ad-61f47e05-984b96-1458022142,Jakkuru,Karnataka,,
5152,"Kogilu Layout Public Toilet",1,560064,13.077655,77.599192,,1,0,NULL,NULL,NULL,NULL,"Kogilu Bande Raod, Kogilu Layout, Yelanka, Jakkuru",30c1158a-59520374-b41f81-1458022142,Jakkuru,Karnataka,,
5153,"Byatarayanapura Public Toilet",1,560092,13.059789,77.593337,,1,0,NULL,NULL,NULL,NULL,"Near BBMP office, Yelanka, Byatarayanapura",1ba8a49b-3f26aa13-ef20b3-1458022143,Byatarayanapura,Karnataka,,
5154,"Hebbal Public Toilet",1,560092,13.059789,77.593337,,1,0,NULL,NULL,NULL,NULL,"Hebbal, Near Hebbal Fly over, Yelanka, Byatarayanapura",49291f77-1ca8b54d-1e1d57-1458022143,Byatarayanapura,Karnataka,,
5155,"Ranga Mindra Public Toilet",1,560092,13.069521,77.582284,,1,0,NULL,NULL,NULL,NULL,"Behind Damodhar Rd, Adjoining to Ranga Mindra, Yelanka, Kodigehalli",280e2f42-7db52ece-59a578-1458022143,Kodigehalli,Karnataka,,
5156,"Durga Temple Rd Public Toilet",1,560097,13.085791,77.556098,,1,0,NULL,NULL,NULL,NULL,"Durga Temple Rd, Near BMTC Bus stopNarasapura, Yelanka, Vidyaranyapura",dca354bc-89c6bbba-9bc982-1458022144,Vidyaranyapura,Karnataka,,
5157,"Thindul circle Public Toilet",1,560097,13.085791,77.556098,,1,0,NULL,NULL,NULL,NULL,"Vidyaranyapura Main Rd, Thindul circle, Yelanka, Vidyaranyapura",446e6715-51467e6e-189461-1458022144,Vidyaranyapura,Karnataka,,
5158,"Nanjappa Cirlce Public Toilet",1,560097,13.085791,77.556098,,1,0,NULL,NULL,NULL,NULL,"Nanjappa Cirlce, Near Nanjappa Circle, Yelanka, Vidyaranyapura",8539f4ca-19459d00-883eb9-1458022144,Vidyaranyapura,Karnataka,,
5159,"Doddabommasandra Main Road Public Toilet",1,560097,13.063193,77.563375,,1,0,NULL,NULL,NULL,NULL,"Petrom bunk Opposite, DoddabommasandraMain Road, Yelanka, Dodda Bommasandra",78ef0438-5315e7a2-2f752c-1458022144,"Dodda Bommasandra",Karnataka,,
5160,"M.S.Palaya circle Public Toilets",1,560076,12.914193,77.614665,,1,0,NULL,NULL,NULL,NULL,"Yelanka Double road, M.S.Palaya circle, Yelanka, Kuvempu Nagar",ba654921-4db02626-46b30f-1458022145,"Kuvempu Nagar",Karnataka,,
5161,"Ramchandra Pura Public Toilet",1,560076,12.914193,77.614665,,1,0,NULL,NULL,NULL,NULL,"Opposite to Kerosine Bunk, Ramchandra Pura, Yelanka, Kuvempu Nagar",b45f438c-67ec21a1-009ca4-1458022145,"Kuvempu Nagar",Karnataka,,
5162,"Video Park Rd Public Toilet",1,560073,13.052682,77.495472,,1,0,NULL,NULL,NULL,NULL,"Video Park Rd, Manjunath Nagarvideo park Rd, labour colony mandali compound, Dasarahalli, Bagalakunte",55f64e16-840166a7-347544-1458022145,Bagalakunte,Karnataka,,
5163,"Dollars Colony Public Toilet",1,560017,12.955106,77.659321,,1,0,NULL,NULL,NULL,NULL,"1st Main DollarsColony, East, Radhakrishna Temple Ward",f0e71baa-ed32ecf7-b3e03b-1458022145,"Radhakrishna Temple Ward",Karnataka,,
5164,"Sanjanagara Main Road Public Toilet",1,560017,12.955106,77.659321,,1,0,NULL,NULL,NULL,NULL,"Sanjanagara MainRoad, East, Radhakrishna Temple Ward",a5e2f096-c4967200-af832d-1458022146,"Radhakrishna Temple Ward",Karnataka,,
5165,"Nagesh shetty Bus stop Public Toilet",1,560017,12.955106,77.659321,,1,0,NULL,NULL,NULL,NULL,"Nagesh shetty Busstop, East, Radhakrishna Temple Ward",da902817-a19bdd04-45f133-1458022146,"Radhakrishna Temple Ward",Karnataka,,
5166,"Bull ward Park Public Toilet",1,560017,12.955106,77.659321,,1,0,NULL,NULL,NULL,NULL,"Bull ward Park, East, Radhakrishna Temple Ward",f3dd7f9a-64223363-a6618d-1458022146,"Radhakrishna Temple Ward",Karnataka,,
5167,"Sanjanagara Main Road Public Toilet",1,560094,13.039301,77.573982,,1,0,NULL,NULL,NULL,NULL,"Sanjanagara MainRoad, East, Sanjaya Nagar",649e8743-1f42f05a-4a2ae1-1458022146,Sanjaynagar,Karnataka,,
5168,"Sanjaya Nagar Public Toilet",1,560094,13.039301,77.573982,,1,0,NULL,NULL,NULL,NULL,"1st main, Sanjanagara MainRoad, East, Sanjaya Nagar",27d34b7c-d6b60bc2-219b6c-1458022146,Sanjaynagar,Karnataka,,
5169,"Ganga Nagar Public Toilet",1,560094,13.025036,77.592259,,1,0,NULL,NULL,NULL,NULL,"5th Main Road, East, Ganga Nagar",9ffb713e-7645cc7f-571937-1458022147,"Ganga Nagar",Karnataka,,
5170,"Kaya Skin Bar",1,560003,13.001914,77.571336,8022667211,1,0,NULL,NULL,NULL,NULL,"Inside Mantri Square Mall, Sampide Road",ef94e275-274f119f-bd69bc-1458103054,Malleswaram,Karnataka,http://www.kaya.in,care@kayaindia.net
5171,"Kaya Skin Clinic",1,560003,13.001914,77.571336,"080 23568991",1,0,NULL,NULL,NULL,NULL,"OPPOSITE Vyalikaval Police Station, 2nd Main Road, Palace Guttahalli, NEXT TO In-Excess Obesity Clinic, OPPOSITE Spencer's Daily",a238906d-285043cc-f24335-1458112137,Sadashivanagar,Karnataka,http://www.kaya.in,care@kayaindia.net
5172,"Kaya Skin Clinic ",1,560001,12.976594,77.599271,"080 41246410",1,0,NULL,NULL,NULL,NULL,"INSIDE Isha Villa Apartments, Lavelle Road, Shanthala Nagar, NEXT TO Bella Vista, OPPOSITE Cafe Mocha",3a417b62-b34730d6-34f4f0-1458112138,"Vittal Mallya Road",Karnataka,http://www.kaya.in,care@kayaindia.net
5173,"Kaya Skin Bar",1,560055,13.007844,77.557663,"080 22682172",1,0,NULL,NULL,NULL,NULL,"NSIDE Orion Mall, Dr Rajkumar Road, Brigade Gateway, Rajajinagar, 1.4 km STRAIGHT FROM Navrang Circle",65c0173b-28860334-5c9def-1458112138,Rajajinagar,Karnataka,http://www.kaya.in,care@kayaindia.net
5174,"Kaya Skin Clinic",1,560005,12.997989,77.622651,"080 41574974",1,0,NULL,NULL,NULL,NULL,"OPPOSITE Dr Agrawal Eye Hospital, Saunders Road, Frazer Town, next to Dream world Gift Center, opposite Ponnuswamy Restaurant",6536210c-81e4d917-883046-1458112138,"Frazer Town",Karnataka,http://www.kaya.in,care@kayaindia.net
5175,"Kaya Skin Clinic",1,560030,12.944150,77.607623,"080 65674479",1,0,NULL,NULL,NULL,NULL,"INSIDE Ansal Madhuvan and Brundavan Apartments, Luskar Hosur Road",b7a7e259-c3d4d8e1-ac8d2c-1458112138,Koramangala,Karnataka,www.kaya.in,care@kayaindia.net
5176,"Kaya Skin Clinic",1,560070,12.914930,77.563490,"080 41156001",1,0,NULL,NULL,NULL,NULL,"Inside Rohini Arcade, Kathreguppe Main Road, BSK 3rd Stage, opposite Udupi Upahara, near FoodWorld, at Kathriguppe Signal",04b476b8-559c7495-dda5a6-1458112139,Banashankari,Karnataka,http://www.kaya.in,care@kayaindia.net
5177,"Kaya Skin Clinic",1,560041,12.924934,77.580704,"080 40914913",1,0,NULL,NULL,NULL,NULL,"Above Namdhari's Fresh, 10th A Main Road, 5th block, Jayanagar",b47b3538-8747c3cb-20038a-1458112139,Jayanagar,Karnataka,http://www.kaya.in,care@kayaindia.net
5178,"Kaya Skin Clinic",1,560094,13.039301,77.573982,"080 40905280",1,0,NULL,NULL,NULL,NULL,"Opposite World of Titan, New BEL Road, ITI Layout, RMV 2nd Stage, RMV Extension, next to Croma Electronics, opposite Star Opticals",d11e7ef4-48e8d72a-b870be-1458112140,"ITI Layout",Karnataka,http://www.kaya.in,care@kayaindia.net
5179,"Kaya Skin Bar",1,560095,12.936915,77.640726,"080 22067641",1,0,NULL,NULL,NULL,NULL,"Inside Forum Mall, Kormangala Entrance, Luskar Hosur Road, 7th Block",228f6474-f43589a7-3e4ba7-1458112140,Koramangala,Karnataka,www.kaya.in,care@kayaindia.net
5180,"Kaya Skin Clinic",1,560102,12.917534,77.650457,"080 8431908009",1,0,NULL,NULL,NULL,NULL,"435, 27th Main, 1st floor,  Sector 1, HSR Layout",1eb80d74-d4947b65-59c849-1458112140,"HSR Layout",Karnataka,http://www.kaya.in,care@kayaindia.net
5182,BigBasket,1,560071,12.953296,77.640812,"+91 18601231000",1,0,NULL,NULL,NULL,NULL,"No. 7, Service Road, Off 100 Feet Road Indiranagar, Landmark: Above HDFC Bank",b08ab403-c5d94b29-64ced4-1458112808,Indiranagar,Karnataka,http://www.bigbasket.com,customerservice@bigbasket.com
5225,"Nandita's Organic Beauty",1,560034,12.923335,77.618234,"+91 80-25721170",1,86,areahop-nanditas.jpg,image/jpeg,79526,"2016-07-08 11:40:50","17th cross road and 5th Main Rd, Sector 6",NULL,"HSR Layout",NULL,http://www.nanditas.com/,info@nanditas.com
5226,"Jiyo Natural Private Limited",1,560068,12.898360,77.617947,"+91 96863 12345",1,86,www.areahop.com_jiyo_natural.JPG,image/jpeg,3049124,"2016-03-17 04:55:15","4/5, 11th Main Road, Hosur Road",NULL,Bommanahalli,NULL,www.jiyonatural.com,order@jiyonatural.com
5227,"City Bar",1,560001,12.976594,77.599271,"080 4171 6359",1,0,NULL,NULL,NULL,NULL,"86, Ground Floor, Oak Shot Place, MG Road,Bangalore",6f1613d4-f20f8786-c5f89c-1458539468,"MG Road",Karnataka,NULL,NULL
5228,"Windmills Craftworks",1,560048,12.985359,77.708126,"0888 023 3322",1,0,NULL,NULL,NULL,NULL,"331, 5B Road, EPIP Zone, Next to L&T infotech, Whitefield, Bangalore",7fe12972-a119aa7a-cf3d7f-1458539468,Whitefield,Karnataka,NULL,NULL
5230,Kudla,1,560001,12.976594,77.599271,"080 2847 8811",1,0,NULL,NULL,NULL,NULL,"198, BB Enclave, Above Cafe Coffee Day, Hunasemaranahalli, New Airport Road,_International Airport, Bangalore",0e0d1764-4b7b506f-8c86a5-1458539469,"Bangalore International Airport",Karnataka,NULL,NULL
5232,Koshy's,1,560001,12.976594,77.599271,"080 2221 3793",1,0,NULL,NULL,NULL,NULL,"39, St. Marks Road, Bangalore",c3004ea1-10a4399f-46abc6-1458539470,"St Marks Road",Karnataka,NULL,NULL
5233,Toscano,1,560001,12.976594,77.599271,"080 4173 8800",1,0,NULL,NULL,NULL,NULL,"The Collection - U.B. City, Level II, Concord Block, 24, Vittal Mallya Road, Bangalore",acf2762c-91451f97-b20754-1458539470,"Vittal Mallya Road",Karnataka,www.toscano.co.in,lijo@toscano.co.in
5234,Toscano,1,560001,12.976594,77.599271,"080 4155 8423",1,0,NULL,NULL,NULL,NULL,"7th Cross,1st Block, Ashoka Pillar Road, Near Madhavan Park Circle, Jayanagar, Bangalore",096af472-9c9d2999-136b54-1458539470,Jayanagar,Karnataka,www.toscano.co.in,restaurantservicejn@toscano.co.in
5235,Toscano,1,,12.987812,77.767290,"080 2593 9224",1,0,NULL,NULL,NULL,NULL,"Whitefield Forum Value Mall 2nd Floor, Whitefield Main Road,  Whitefield, Bangalore",e816ea49-d9ea35bf-5f621b-1458539470,Whitefield,Karnataka,www.toscano.co.in,rajan@toscano.co.in
5236,Bangaliana,1,560001,12.976594,77.599271,"0888 005 5085",1,0,NULL,NULL,NULL,NULL,"7th Block, Opp HDFC Bank, Koramangala, Bangalore",0611e6a0-92ad594e-0c8a3a-1458539470,Koramangala,Karnataka,www.bangaliana.co.in,fishnsweets@gmail.com
5237,Bangaliana,1,560001,12.976594,77.599271,"0888 005 5085",1,0,NULL,NULL,NULL,NULL,"8 Arekere Gate, Bannerghatta Road, (opp Rose garden Apt), Bangalore",45b32b0c-6aaf560a-3f4c74-1458539471,Bannerghatta,Karnataka,www.bangaliana.co.in,fishnsweets@gmail.com
5238,Bangaliana,1,560001,12.976594,77.599271,"0888 005 5085",1,0,NULL,NULL,NULL,NULL,"2633, 27th Main, 13th Cross, 1st Sector, Liss Arcade,_HSR, Bangalore",aaba8cc5-016ed1f5-fbaada-1458539471,"HSR Layout",Karnataka,www.bangaliana.co.in,fishnsweets@gmail.com
5240,"The Fatty Bao",1,560008,12.981994,77.625613,"080 4411 4499",1,0,NULL,NULL,NULL,NULL,"610,3rd Floor,12th A Main Road, off 80 feet Road, HAL 2nd Stage, Indira Nagar, Bangalore",212d0847-7b509102-c51f6d-1458539471,Indiranagar,Karnataka,NULL,NULL
5241,"Toit Brewpub",1,560038,12.978346,77.640787,"090197 13388",1,0,NULL,NULL,NULL,NULL,"62, 100 Feet Road, Near KFC Restaurant, Indiranagar, Bangalore",41637850-6f5b4a3e-c3b48a-1458539471,Indiranagar,Karnataka,toit.in/,NULL
5242,"Visvesvaraya Industrial and Technological Museum - Kasturba Road",1,560001,12.976594,77.599271,"080 2286 6200",1,0,NULL,NULL,NULL,NULL,"P. B. No. 5216, Kasturba Road, Beside  State Government Museum, Bangalore",48aafaac-055a82da-8e5ad4-1458539472,"Kasturba Road",Karnataka,www.vismuseum.gov.in/,vitmuseum@gmail.com_
5243,"Green Theory",1,560025,12.968333,77.602916,"080 4166 3836",1,0,NULL,NULL,NULL,NULL,"15,Convent Road,Richmond Town, Bangalore",4f585a21-317e7714-ac4282-1458539472,"Richmond Town",Karnataka,NULL,NULL
5244,"US Pizza",1,,12.930061,77.578331,"080 3294 9966",1,0,NULL,NULL,NULL,NULL,"525/58, South End, B Cross, 28th Main Road, 9th Block,Jayanagar, Bangalore",99b09e28-8f3b8bfb-fb700d-1458539472,Jayanagar,Karnataka,uspizza.in/,NULL
5245,"US Pizza",1,,12.849049,77.657641,"080 4954 0195",1,0,NULL,NULL,NULL,NULL,"SJR Equinox, Opposite Velankani Gate 3, Electronic City, Bangalore",677161a2-4f6c45bd-e59dce-1458539472,"Electronic City",Karnataka,uspizza.in/,NULL
5246,"US Pizza",1,,12.985652,77.672364,"080 3192 9988",1,0,NULL,NULL,NULL,NULL,"78, B K Plaza,Kaggadasapura_Main Road, Vignan Nagar, Bangalore",c57211ad-208ecc81-b2733f-1458539472,Kaggadasapura,Karnataka,www.uspizza.in,NULL
5247,"US Pizza",1,560001,12.976594,77.599271,"080 4902 9512",1,0,NULL,NULL,NULL,NULL,"5th Floor, Bangalore Central, Outer Ring Road,_Bellandur, Bangalore",27b3e5b8-24f9ccc0-0d5882-1458539472,Bellandur,Karnataka,uspizza.in/,NULL
5248,"US Pizza",1,560001,12.976594,77.599271,"080 3232 5558",1,0,NULL,NULL,NULL,NULL,"Beereshwara Shopping Complex, Raghavendra Circle, Horamavu Road,_Rammurthy Nagar, Bangalore",6ae7b9a5-066670bf-bae6a8-1458539473,"Ramamurthy Nagar",Karnataka,www.uspizza.in,NULL
5249,"Domino's Pizza",1,560023,12.975743,77.558578,"080 2339 1056",1,0,NULL,NULL,NULL,NULL,"1st Floor, Above Foodworld, 40, Attiguppe, Chandra Layout, Bangalore",f6ad6bfa-e636f4d3-7cd1f4-1458539473,"Chandra Layout",Karnataka,NULL,NULL
5251,"Fusion Lounge",1,560001,12.976594,77.599271,"080 4114 2912",1,0,NULL,NULL,NULL,NULL,"185, 2nd Floor, Above Pizza Corner,Dena Complex, Brigade Road Bangalore",ca512031-2fef1f2c-78603e-1458539473,"Brigade Road",Karnataka,NULL,NULL
5255,"Kynkyny Art Gallery",1,560001,12.976594,77.599271,"080 4092 6202",1,0,NULL,NULL,NULL,NULL,"No. 104, Embassy Square, No.148, Infantry Road, Opposite to Commissioner Office, Bangalore",8005df8f-be9c7914-eb691f-1458539474,"Infantry Road",Karnataka,http://www.kynkyny.com/,
5256,"City Bar - MG Road",1,560001,12.972404,77.596952,"080 4171 6359",1,0,NULL,NULL,NULL,NULL,"86, Ground Floor, Oak Shot Place, MG Road",6c105bee-453375aa-c9f5b1-1458541353,"MG Road",Karnataka,NULL,NULL
5257,"Windmills Craftworks",1,560048,12.985359,77.708126,"0888 023 3322",1,0,NULL,NULL,NULL,NULL,"331, 5B Road, EPIP Zone, Next to L&T infotech, Whitefield",60ae936c-6402e6af-ab96ce-1458541353,Whitefield,Karnataka,NULL,NULL
5258,"Jalsa - Banashankari",1,560037,12.956629,77.704682,"080 4229 7555",1,0,NULL,NULL,NULL,NULL,"942, 21st Main Road, Next to BDA Complex, Above ICICI Bank, Banashankari Stage II",74386ddf-0b3084f6-f0e291-1458541353,Banashankari,Karnataka,NULL,NULL
5259,Kudla,1,560001,12.976594,77.599271,"080 2847 8811",1,0,NULL,NULL,NULL,NULL,"198, BB Enclave, Above Cafe Coffee Day, Hunasemaranahalli, New Airport Road, International Airport",289b3cea-dec9c079-8903e3-1458541354,"Bangalore International Airport",Karnataka,NULL,NULL
5260,"Coffee On Canvas",1,560034,12.924812,77.633711,"080 4121 3101",1,0,NULL,NULL,NULL,NULL,"12th Main, Near Hotel Maharaja Signal, 84, 1st Cross Road, 4th Block East, Koramangala",16050f27-37d0cd03-f2e4f2-1458541354,Koramangala,Karnataka,coffeeoncanvas.com,NULL
5261,Koshy's,1,560001,12.974623,77.601508,"080 2221 3793",1,0,NULL,NULL,NULL,NULL,"39, St. Marks Road",38990c84-67236e38-b88769-1458541354,"St Marks Road",Karnataka,NULL,NULL
5262,Toscano,1,560001,12.971854,77.596268,"080 4173 8800",1,0,NULL,NULL,NULL,NULL,"The Collection - U.B. City, Level II, Concord Block, 24, Vittal Mallya Road",869ae846-849da604-482f4f-1458541354,"Vittal Mallya Road",Karnataka,www.toscano.co.in,lijo@toscano.co.in
5263,Toscano,1,560001,12.976594,77.599271,"080 4155 8423",1,0,NULL,NULL,NULL,NULL,"7th Cross,1st Block, Ashoka Pillar Road, Near Madhavan Park Circle, Jayanagar",2fea4b16-93c23bf2-1eaf7b-1458541355,Jayanagar,Karnataka,www.toscano.co.in,restaurantservicejn@toscano.co.in
5264,Toscano,1,560001,12.976594,77.599271,"080 2593 9224",1,0,NULL,NULL,NULL,NULL,"Whitefield Forum Value Mall 2nd Floor, Whitefield Main Road,  Whitefield",f212c4f9-baf0eb35-e276c0-1458541355,Whitefield,Karnataka,www.toscano.co.in,rajan@toscano.co.in
5265,Bangaliana,1,560001,12.927923,77.627108,"0888 005 5085",1,0,NULL,NULL,NULL,NULL,"7th Block, Opp HDFC Bank, Koramangala",1e4b1b06-7f354816-b4019d-1458541355,Koramangala,Karnataka,www.bangaliana.co.in,fishnsweets@gmail.com
5266,Bangaliana,1,560001,12.976594,77.599271,"0888 005 5085",1,0,NULL,NULL,NULL,NULL,"8 Arekere Gate, Bannerghatta Road, (opp Rose garden Apt)",d7925418-b85a8e6e-825560-1458541355,Bannerghatta,Karnataka,www.bangaliana.co.in,fishnsweets@gmail.com
5267,Bangaliana,1,,12.924701,77.668761,"0888 005 5085",1,0,NULL,NULL,NULL,NULL,"2633, 27th Main, 13th Cross, 1st Sector, Liss Arcade, HSR Layout",1406e0a7-bc219fa7-02861e-1458541355,"HSR Layout",Karnataka,www.bangaliana.co.in,fishnsweets@gmail.com
5269,"The Fatty Bao",1,560008,12.969799,77.646117,"080 4411 4499",1,0,NULL,NULL,NULL,NULL,"610,3rd Floor,12th A Main Road, off 80 feet Road, HAL 2nd Stage, Indira Nagar",475f333c-a47bb3c1-7931be-1458541356,Indiranagar,Karnataka,NULL,NULL
5270,"Toit Brewpub",1,560038,12.985708,77.648149,"090197 13388",1,0,NULL,NULL,NULL,NULL,"62, 100 Feet Road, Near KFC Restaurant, Indiranagar",a366719f-5c7c29c4-9f8e6e-1458541356,Indiranagar,Karnataka,toit.in/,NULL
5271,"Visvesvaraya Industrial and Technological Museum - Kasturba Road",1,560001,12.974625,77.599401,"080 2286 6200",1,0,NULL,NULL,NULL,NULL,"P. B. No. 5216, Kasturba Road, Beside  State Government Museum",7880359d-a2c5e41f-5e551b-1458541356,"Kasturba Road",Karnataka,www.vismuseum.gov.in/,vitmuseum@gmail.com
5272,"Green Theory",1,560025,12.968333,77.602916,"080 4166 3836",1,0,NULL,NULL,NULL,NULL,"15,Convent Road,Richmond Town",57074522-d30806e9-afa27a-1458541356,"Richmond Town",Karnataka,NULL,NULL
5273,"US Pizza",1,,12.930061,77.578331,"080 3294 9966",1,0,NULL,NULL,NULL,NULL,"525/58, South End, B Cross, 28th Main Road, 9th Block,Jayanagar",6e302e21-a1e09f16-c7e9b3-1458541356,Jayanagar,Karnataka,uspizza.in/,NULL
5274,"US Pizza",1,,12.849049,77.657640,"080 4954 0195",1,0,NULL,NULL,NULL,NULL,"SJR Equinox, Opposite Velankani Gate 3, Electronic City",97cd35f8-549d723a-509863-1458541356,"Electronic City",Karnataka,uspizza.in/,NULL
5275,"US Pizza",1,,12.985652,77.672364,"080 3192 9988",1,0,NULL,NULL,NULL,NULL,"78, B K Plaza,Kaggadasapura Main Road, Vignan Nagar",251975eb-e698df77-d57ca3-1458541356,Kaggadasapura,Karnataka,www.uspizza.in,NULL
5276,"US Pizza",1,,12.927376,77.679276,"080 4902 9512",1,0,NULL,NULL,NULL,NULL,"5th Floor, Bangalore Central, Outer Ring Road, Bellandur",925fa462-a675c322-95f151-1458541356,Bellandur,Karnataka,uspizza.in/,NULL
5277,"US Pizza",1,560001,12.976594,77.599271,"080 3232 5558",1,0,NULL,NULL,NULL,NULL,"Beereshwara Shopping Complex, Raghavendra Circle, Horamavu Road, Rammurthy Nagar",f69dce78-fde6fd42-abe7c9-1458541357,"Ramamurthy Nagar",Karnataka,www.uspizza.in,NULL
5278,"Domino's Pizza",1,560023,12.975743,77.558578,"080 2339 1056",1,0,NULL,NULL,NULL,NULL,"1st Floor, Above Foodworld, 40, Attiguppe, Chandra Layout",f9099fd0-4e203ff4-2eebcf-1458541357,"Chandra Layout",Karnataka,NULL,NULL
5279,Karavalli,1,560025,12.966216,77.606800,"080 6660 4545",1,0,NULL,NULL,NULL,NULL,"66, Ground Floor,The Gateway Hotel",907d2247-12a8b67f-c64a7d-1458541357,"Gateway Road",Karnataka,NULL,NULL
5280,"Fusion Lounge",1,560001,12.973621,77.607513,"080 4114 2912",1,0,NULL,NULL,NULL,NULL,"185, 2nd Floor, Above Pizza Corner,Dena Complex, Brigade Road",40803992-5a132c9a-d636d7-1458541357,"Brigade Road",Karnataka,NULL,NULL
5282,"Arbor Brewing Company",1,560025,12.968957,77.606293,"080501 44477",1,0,NULL,NULL,NULL,NULL,"8, 3rd Floor, Allied Grande Plaza, Diagonally Opposite Garuda Mall, Magrath Road, Brigade Road",881ba39a-32886444-cde4da-1458541358,"Brigade Road",Karnataka,www.arborbrewing.com/,NULL
5283,"Sultans Of Spice",1,560095,12.936915,77.640726,"080 4343 1800",1,0,NULL,NULL,NULL,NULL,"No. 60, Jyothi Nivas College Road, Koramangala 5th Bock",57a2bbba-945492f4-539939-1458541358,Koramangala,Karnataka,NULL,NULL
5284,"Kynkyny Art Gallery",1,560001,12.976594,77.599271,"080 4092 6202",1,0,NULL,NULL,NULL,NULL,"No. 104, Embassy Square, No.148, Infantry Road, Opposite to Commissioner Office",f444c5ca-9f5615e7-565a10-1458541358,"Infantry Road",Karnataka,http://www.kynkyny.com/,
5285,"Olive Beach - Ashok Nagar",1,560025,12.966216,77.606800,"080 4112 8400",1,0,NULL,NULL,NULL,NULL,", Bangalore,  560025",7327e374-2afb3088-569ee9-1458543308,"Ashok Nagar",Karnataka,NULL,NULL
5286,Swensen's,1,560001,12.912106,77.637918,"080 4965 3522",1,0,NULL,NULL,NULL,NULL,"28, 4th Sector, Opposite BDA Complex, HSR Layout",e8e64fef-43c6cfcc-787977-1458543308,"HSR Layout",Karnataka,www.swensens.com/,
5287,Swensen's,1,560001,12.976594,77.599271,"080 4965 3541",1,0,NULL,NULL,NULL,NULL,"Upper Ground Floor, Mantri Square, Sampige Road,Malleshwaram",58ab845e-b55f8da5-a24ac2-1458543308,Malleswaram,Karnataka,www.swensens.com/,
5288,Swensen's,1,560001,12.976594,77.599271,"080 4965 3543",1,0,NULL,NULL,NULL,NULL,"2nd Floor, Phoenix Market City Mall, Whitefield",88d1f596-023029e7-76ffec-1458543308,Whitefield,Karnataka,www.swensens.com/,
5289,Swensen's,1,560001,12.911176,77.585658,"080 4965 2176",1,0,NULL,NULL,NULL,NULL,"Near RV Dental College, JP Nagar",14437506-ec974a4b-ea4c6f-1458543309,"JP Nagar",Karnataka,www.swensens.com/,
5290,Swensen's,1,560001,12.976594,77.599271,"080 4965 3566",1,0,NULL,NULL,NULL,NULL,"6 & 7, G Block, 60 Feet Road, Sahakara Nagar",de8006c3-d1a8985f-0d3ff7-1458543309,"Sahakara Nagar",Karnataka,www.swensens.com/,
5291,Swensen's,1,560001,12.927622,77.627301,"080 4965 3254",1,0,NULL,NULL,NULL,NULL,"421, Ground Floor, 6th Block",66c5bc16-e4036d39-cbccb7-1458543309,Koramangala,Karnataka,www.swensens.com,
5292,Swensen's,1,560001,12.976594,77.599271,"080 4965 2428",1,0,NULL,NULL,NULL,NULL,"5M-403, 5th Main, 2nd Block, Hennur Road, HRBR Layout,Banaswadi",917cd5f4-a66642ea-86f713-1458543309,Banaswadi,Karnataka,www.swensens.com/,
5293,"The Hole In The Wall Cafe",1,560047,12.935137,77.624600,"080 4094 9490",1,0,NULL,NULL,NULL,NULL,"4, 8th Main Road, Koramangala 4th Block",4220d998-f7a4fb36-0571dc-1458543310,Koramangala,Karnataka,NULL,NULL
5294,Nagarjuna,1,560025,12.949782,77.592294,"080 2559 2233",1,0,NULL,NULL,NULL,NULL,"44/1, Residency Road, Beside Galaxy Theatre, Shanti Nagar",afee6802-e784ffb7-ee19f7-1458543310,"Shanti Nagar",Karnataka,NULL,NULL
5295,Nagarjuna,1,,12.974832,77.644926,"080 4280 0900",1,0,NULL,NULL,NULL,NULL,"195, Double Road,Indiranagar",ac5c7f02-45482c78-0113c8-1458543310,Indiranagar,Karnataka,NULL,NULL
5296,Nagarjuna,1,,12.933646,77.624681,"080 4965 2741",1,0,NULL,NULL,NULL,NULL,"138, 5th Block, 1st Cross, KHB Colony",6eec6f8d-ab073f78-ae5fef-1458543310,Koramangala,Karnataka,NULL,NULL
5297,Nagarjuna,1,,12.810580,77.586573,"080 4965 3045",1,0,NULL,NULL,NULL,NULL,"174/1, Bannerghatta Main Road",5d201559-20dd82a8-416b06-1458543310,Bannerghatta,Karnataka,NULL,NULL
5298,Nagarjuna,1,,12.933086,77.579077,"080 4965 3019",1,0,NULL,NULL,NULL,NULL,"21/22, 22nd Cross, 3rd Block, Jayanagar",d34f7746-9ccf1a69-f979d7-1458543310,Jayanagar,Karnataka,NULL,NULL
5299,Matteo,1,560001,12.975646,77.602275,"080 4333 6000",1,0,NULL,NULL,NULL,NULL,"2, Church Street",6c06b997-9e117302-2a835d-1458543310,"Church Street",Karnataka,,
5300,Matteo,1,560001,12.965549,77.594293,"080 2521 1612",1,0,NULL,NULL,NULL,NULL,"3rd Stage, Double Road, Indiranagar",cdcbf3ad-b72a11a3-2357d6-1458543310,Indiranagar,Karnataka,,
5302,Prost,1,560035,12.900932,77.707246,"080 2553 4989",1,0,NULL,NULL,NULL,NULL,"749, 10th Main, 80 Feet Road, 4th Block, Near Maharaja Hotel, Koramangala",7054ad56-6267c373-cdaf78-1458543311,Koramangala,Karnataka,www.prost.in/,NULL
5303,"La Casa",1,560035,12.904802,77.682107,"080 6453 5930",1,0,NULL,NULL,NULL,NULL,"15, Amruta Engineering College Road, Off Sarjapur Road, Kasavanahalli, Near Lake Shore Homes",2b86ee68-69abddc5-12e8e7-1458543311,Kasavanahalli,Karnataka,NULL,NULL
5304,"La Casa",1,560001,12.976594,77.599271,"080 2245 4613",1,0,NULL,NULL,NULL,NULL,"774, 33rd Cross, 10th Main, 4th Block, Jayanagar",acf6eadc-14367fdd-52f535-1458543311,Jayanagar,Karnataka,NULL,NULL
5305,"La Casa",1,560001,13.028005,77.639971,"080 4208 4201",1,0,NULL,NULL,NULL,NULL,"5C/5D, Outer Ring Road, Near Girias Showroom, 5th Cross, 2nd Block, Kalyan Nagar",618101e3-3edbc98e-a282ba-1458543312,"Kalyan Nagar",Karnataka,NULL,NULL
5306,"Barbeque Nation",1,560066,12.987758,77.734370,"080 6060 0000",1,0,NULL,NULL,NULL,NULL,"1st Floor, Ascendas Park Square Mall, ITPL Main Rd",6baf3fa6-b09b1cef-e0b2fe-1458543414,Whitefield,Karnataka,NULL,NULL
5307,"Barbeque Nation",1,560001,12.910491,77.585717,"080 6060 0000",1,0,NULL,NULL,NULL,NULL,"67, 15th Cross, 6th B Main, JP Nagar",696e40ac-a9e4f5a3-9f16b5-1458543415,"JP Nagar",Karnataka,NULL,NULL
5308,"Barbeque Nation",1,560001,12.976594,77.599271,"080 6060 0000",1,0,NULL,NULL,NULL,NULL,"4005, HAL 2nd Stage, 100 Feet Road, Indiranagar",baa3e35e-6682165d-5e3099-1458543415,Indiranagar,Karnataka,NULL,NULL
5309,"Barbeque Nation",1,560001,12.927923,77.627108,"080 6060 0000",1,0,NULL,NULL,NULL,NULL,"86, 1st Cross, 1st Block",566f4ee1-855d76b8-7e8f52-1458543415,Koramangala,Karnataka,NULL,NULL
5310,"Barbeque Nation",1,560001,13.028005,77.639971,"080 6060 0000",1,0,NULL,NULL,NULL,NULL,"30, 3rd Floor, B.R.Plaza, 4th Cross, CMR Road, HRBR Layout, Kalyan Nagar",e064dd14-6b481e6f-e9c7c8-1458543416,"Kalyan Nagar",Karnataka,NULL,NULL
5311,"Barbeque Nation",1,560001,12.976595,77.626715,"080 6060 0000",1,0,NULL,NULL,NULL,NULL,"1/4, Ground Floor, Lido Mall, Swami Vivekananda Road, Ulsoor",7e25b0e2-639224fe-e62a46-1458543416,Ulsoor,Karnataka,NULL,NULL
5312,"Barbeque Nation",1,560001,12.976594,77.599271,"080 6060 0000",1,0,NULL,NULL,NULL,NULL,"94, Neeladri Nagar, 14th Cross Neeladri Main Road, Doddathogur, Electronic City",90ce4676-d8a42273-3a848e-1458543416,"Electronic City",Karnataka,NULL,NULL
5313,"Barbeque Nation",1,560001,12.976594,77.599271,"080 6060 0000",1,0,NULL,NULL,NULL,NULL,"Ground Floor, Westgate Mall, Dr Rajkumar Road, 4M Block, Rajajinagar",66316e0b-aa46a859-bc99fb-1458543417,Rajajinagar,Karnataka,NULL,NULL
5315,"The Egg Factory",1,560001,12.972192,77.601137,"080 4211 0041",1,0,NULL,NULL,NULL,NULL,"29, Ground Floor, Whitehouse, Opposite SBI Bank, St. Marks Road",97b3081a-f1c3ee2e-f9d393-1458543417,"St Marks Road",Karnataka,NULL,NULL
5316,"The Egg Factory",1,560001,12.976594,77.599271,"080 4094 6913",1,0,NULL,NULL,NULL,NULL,"6th Cross, 5th Main, 60 Feet Road, 5th Block",8fa55c06-d6a24871-7bc016-1458543418,Koramangala,Karnataka,NULL,NULL
5317,"The Egg Factory",1,560001,13.036848,77.566041,"080 2341 5221",1,0,NULL,NULL,NULL,NULL,"7, Ground Floor, 80 Feet Road, RMV 2nd Stage, New BEL Road",89e0f79c-56b41343-6acbbc-1458543418,"New BEL Road",Karnataka,NULL,NULL
5318,"The Egg Factory",1,,12.969799,77.749946,"080 4128 9056",1,0,NULL,NULL,NULL,NULL,"120-A3, 3rd Road, Ground Floor, Santosh Tower, EPIP Area, Whitefield",5cd2a797-7a1b9a14-19fb4f-1458543418,Whitefield,Karnataka,NULL,NULL
5319,"The Egg Factory",1,,12.905729,77.588292,"080 4012 4848",1,0,NULL,NULL,NULL,NULL,"288, Ground Floor, Opposite HP Petrol Pump, 15th Cross, 18th Main, 5th Phase, JP Nagar",4f8a1235-f1d52dea-553162-1458543418,"JP Nagar",Karnataka,NULL,NULL
5320,"TGI Friday's",1,560076,12.914251,77.599886,"080 6708 0290",1,0,NULL,NULL,NULL,NULL,"Royal Meenakshi Mall, 4th floor, Bannerghatta Road, Hulimavu",9dc20f08-fea4b47c-043d66-1458543418,Bannerghatta,Karnataka,NULL,NULL
5321,"TGI Friday's",1,560001,12.976594,77.599271,"080 2530 7301",1,0,NULL,NULL,NULL,NULL,"1st Floor, Lido Mall, Ulsoor",6a7bca96-8aa1a220-684c96-1458543418,Ulsoor,Karnataka,NULL,NULL
5322,"Amoeba Sports Bar",1,560001,12.975399,77.602986,"080 2559 4631",1,0,NULL,NULL,NULL,NULL,"22, Amoeba Complex, Church Street",eee490e2-44f5a81a-a9f622-1458543419,"Church Street",Karnataka,NULL,NULL
5323,"Amoeba Sports Bar",1,560001,12.976594,77.599271,"080 2802 6528",1,0,NULL,NULL,NULL,NULL,"Ascendas Park Square, Third Floor, ITPL, Whitefield",dd821c95-4d411e00-10d20a-1458543419,Whitefield,Karnataka,NULL,NULL
5324,"Amoeba Sports Bar",1,560001,12.976594,77.599271,"080 2245 3357",1,0,NULL,NULL,NULL,NULL,"22nd Cross, 3rd Block, Jayanagar",b092fb0a-3df52182-2d2ed9-1458543419,Jayanagar,Karnataka,NULL,NULL
5325,"Amoeba Sports Bar",1,560001,12.976594,77.599271,"080 2266 7141",1,0,NULL,NULL,NULL,NULL,"Mantri Square, Sampige Road, Malleshwaram",9c306273-8cefaf3d-20084e-1458543419,Malleswaram,Karnataka,NULL,NULL
5326,"Amoeba Sports Bar",1,,12.914251,77.599886,"080 2512 5123",1,0,NULL,NULL,NULL,NULL,"Royal Meenakshi Mall, Hulimavu,Bannerghatta Road",bb02028a-3cb66de1-d65adc-1458543420,Bannerghatta,Karnataka,NULL,NULL
5327,"Amoeba Sports Bar",1,,12.987812,77.767290,,1,0,NULL,NULL,NULL,NULL,"Phoenix Market City Mall, Whitefield",c4f6ab09-79d1b349-84fe33-1458543420,Whitefield,Karnataka,NULL,NULL
5328,"Tadka Singh",1,560038,12.971892,77.641155,"+91 767612 1212",1,0,www.areahop.com_tadka_singh.JPG,image/jpeg,551476,"2016-05-23 13:28:45","538, CMH Road, Opp. Metro Station, Indiranagar",1211f3f2-6e46d77f-7b64b3-1458543420,Indiranagar,Karnataka,,
5329,"Tadka Singh",1,566095,12.935215,77.619960,"+91 8088121212",1,0,www.areahop.com_tadka_singh.JPG,image/jpeg,551476,"2016-05-23 13:33:20","146, 5th Block, Beside Nova Speciality Hospital",e33a29b1-5404ce8b-c5a584-1458543420,Koramangala,Karnataka,,
5330,"Tadka Singh",1,560001,12.975667,77.602209,"080 4965 2889",1,0,www.areahop.com_tadka_singh.JPG,image/jpeg,551476,"2016-05-23 13:35:19","16, Church Street",abbeaa1a-dca8a300-d5802b-1458543420,"Church Street",Karnataka,,
5331,"Kobe Sizzlers",1,560038,12.978172,77.642634,"080 6560 0873",1,0,NULL,NULL,NULL,NULL,"516, Krishvi Aspire, CMH Road, Indiranagar 1st stage",ce3c6e62-23388751-6419b0-1458543420,Indiranagar,Karnataka,NULL,NULL
5332,"Kobe Sizzlers",1,560001,12.969761,77.613398,"080 6560 0872",1,0,NULL,NULL,NULL,NULL,"3th Floor, Garuda Mall, Magrath Road",af46ee8c-86a0f531-120210-1458543420,"Magrath Road",Karnataka,NULL,NULL
5333,"Kobe Sizzlers",1,560001,12.976594,77.599271,"080 6560 0874",1,0,NULL,NULL,NULL,NULL,"Upper Ground Floor, Orion Mall, Malleshwaram",c358560d-f732fd9d-daf780-1458543421,Malleswaram,Karnataka,NULL,NULL
5334,"Kobe Sizzlers",1,560001,12.976594,77.599271,"080 4170 5607",1,0,NULL,NULL,NULL,NULL,"10, Near Java City 1st Cross, 5th A Block",95bf67a0-7ba03452-fa9abf-1458543421,Koramangala,Karnataka,NULL,NULL
5339,Lazeez,1,560001,12.976594,77.599271,"080 4121 7034",1,0,NULL,NULL,NULL,NULL,"480, 1st A Cross, 5th Block",f7f3867d-449f2d61-64f0d6-1458621638,Koramangala,Karnataka,www.lazeezrestaurant.in,lazeezbangalore@gmail.com
5340,Lazeez,1,560001,12.927923,77.627108,"080 4965 3003",1,0,NULL,NULL,NULL,NULL,"939, 6th Main, 1st Block",eedbd96f-420f1641-3d127a-1458621638,Koramangala,Karnataka,www.lazeezrestaurant.in/,lazeezbangalore@gmail.com
5341,"Lazeez Express",1,560001,12.933720,77.615905,"080 4965 2877",1,0,NULL,NULL,NULL,NULL,"50/1, JNC College Road, 5th Block",80bb494e-2287a90f-37ae3f-1458621638,Koramangala,Karnataka,www.lazeezrestaurant.in/,lazeezbangalore@gmail.com
5342,"Lazeez Express",1,560001,12.976594,77.599271,"080 4965 3184",1,0,NULL,NULL,NULL,NULL,"948, 16th Main, 7th Cross, Mico layout, 2nd Stage, BTM",ad711b51-ebebf50f-d58e15-1458621639,"BTM Layout",Karnataka,www.lazeezrestaurant.in/,lazeezbangalore@gmail.com
5343,"Jalsa - Marathahalli",1,560001,12.976594,77.599271,"080 3242 5757",1,0,NULL,NULL,NULL,NULL,"25/7 Next To Grand Mall, Outer Ring Road, Doddanakundi, Marathahalli",18f3e746-84f2a1e0-09fa16-1458623758,Marathahalli,Karnataka,,
5344,Khansama,1,560001,12.971599,77.594563,"080 4111 4499",1,0,NULL,NULL,NULL,NULL,"2nd Floor, UB City Mall, Vittal Mallya Road, Bengaluru",ca634033-894e0172-0e9b2b-1458623758,"Vittal Mallya Road",Karnataka,www.khansama.net/,NULL
5345,Anjappar,1,560001,12.976594,77.599271,"080 2553 4477",1,0,NULL,NULL,NULL,NULL,"4, 17th Main, Near BDA Complex, 100 Feet Road, 4th Block",7d21cd2c-3ed04b44-a23d16-1458623759,Koramangala,Karnataka,NULL,NULL
5346,Anjappar,1,560001,12.976594,77.599271,"080 4965 2571",1,0,NULL,NULL,NULL,NULL,"54, 3rd Main Road, Defence Colony, 100 Feet Road",ba884d3e-bbd1dcb6-97068d-1458623759,Indiranagar,Karnataka,NULL,NULL
5347,Anjappar,1,560001,12.976594,77.599271,"080 4965 3140",1,0,NULL,NULL,NULL,NULL,"25/26, Sector 6, BDA Complex, HSR Layout",182d5f64-6f73544d-648dd0-1458623759,"HSR Layout",Karnataka,NULL,NULL
5350,"Monkey Bar",1,560001,12.976594,77.599271,"080 4965 3443",1,0,NULL,NULL,NULL,NULL,"610, 12th Main, Off 80 Feet Road (Opposite SBI Bank), Indiranagar",79ca5153-c820e630-c62073-1458623760,Indiranagar,Karnataka,mobar.in/,NULL
5351,"Kabab Studio",1,560001,12.976594,77.599271,"080 4965 2716",1,0,NULL,NULL,NULL,NULL,"Coraltree, 16, MLA Layout, RT Nagar",8aed3add-81089a41-67ebec-1458623760,"RT Nagar",Karnataka,NULL,NULL
5352,"Cafe Noir",1,560001,12.971132,77.597251,"080 4098 2050",1,0,NULL,NULL,NULL,NULL,"2nd Floor, UB City, Vittal Mallya Road,",f56bb947-6ae95f0e-0dc320-1458623760,"Lavelle Road",Karnataka,cafenoir.co.in/,NULL
5353,"Cafe Noir",1,560001,12.976594,77.599271,"080 2268 2140",1,0,NULL,NULL,NULL,NULL,"Food Court Area, Orion Mall, Brigade Gateway, Dr. Rajkumar Road, Malleshwaram",e1989afd-03f3b690-70211e-1458623761,Malleswaram,Karnataka,www.cafenoir.co.in,NULL
5354,"Cafe Noir",1,,12.987812,77.767290,"080 4965 2811",1,0,NULL,NULL,NULL,NULL,"Ground Floor, Phoenix Market City Mall,Whitefield",6a23154e-f0cc4c57-ac1eba-1458623761,Whitefield,Karnataka,cafenoir.co.in/,NULL
5355,"Cafe Noir",1,,13.204492,77.707690,"080 6678 4899",1,0,NULL,NULL,NULL,NULL,"Devanahalli, Bangalore International Airport, International Airport",4c65ea86-e9566330-84c119-1458623761,"Bangalore International Airport",Karnataka,www.cafenoir.co.in,NULL
5356,"Bangalore Golf Club - High Grounds",1,560001,12.990242,77.585722,"080 4666 1876",1,0,NULL,NULL,NULL,NULL,"2, Sankey Road, High Grounds",9fbfa71e-c71952e2-e17f1b-1458623761,"High Grounds",Karnataka,http://www.bgc1876.com/,bgc1876@gmail.com
5357,Raaga,1,560038,12.978764,77.646666,"080 2525 2189",1,0,NULL,NULL,NULL,NULL,"3, Near HDFC Bank, CMH Road, Indiranagar",c262e856-d07c2228-f2373c-1458623761,Indiranagar,Karnataka,www.raagarestaurant.in/,NULL
5358,"Ice - Vivanta by Taj",1,560001,13.173706,77.882680,"080666 04444",1,0,NULL,NULL,NULL,NULL,"Vivanta By Taj, 41/3, MG Road, Bangalore",a9c08e99-dcc2c0e6-78180f-1458623761,"Ashok Nagar",Karnataka,www.vivantabytaj.com/mgroad-bangalore/.../ice-Bar.html,NULL
5359,"Cafe Mozaic - Vivanta By Taj",1,560001,12.976594,77.599271,"080666 04444",1,0,NULL,NULL,NULL,NULL,"Vivanta By Taj, 41/3, MG Road, Bangalore",35186d02-1b7dd57d-007c1b-1458623762,"Ashok Nagar",Karnataka,www.vivantabytaj.com/mgroad-bangalore/.../ice-Bar.html,NULL
5360,"Memories of China - Vivanta By Taj",1,560001,12.976594,77.599271,"080666 04444",1,0,NULL,NULL,NULL,NULL,"Vivanta By Taj, 41/3, MG Road, Bangalore",486a8792-8af20696-d3d953-1458624295,"Ashok Nagar",Karnataka,www.vivantabytaj.com,
5361,"Graze - Vivanta By Taj",1,560001,12.976594,77.599271,"080666 04444",1,0,NULL,NULL,NULL,NULL,"Vivanta By Taj, 41/3, MG Road, Bangalore",8b711e12-507e136c-614ea3-1458624295,"Ashok Nagar",Karnataka,www.vivantabytaj.com/mgroad-bangalore/.../ice-Bar.html,NULL
5362,"Sugar and Spice - Vivanta By Taj",1,560001,12.976594,77.599271,"080666 04444",1,0,NULL,NULL,NULL,NULL,"Vivanta By Taj, 41/3, MG Road, Bangalore",80adf63c-8ca6ef32-eb2a1b-1458624295,"Ashok Nagar",Karnataka,www.vivantabytaj.com/mgroad-bangalore/.../ice-Bar.html,NULL
5363,"No Limmits Lounge and Club",1,560025,12.970223,77.610644,"080 4933 3000",1,0,NULL,NULL,NULL,NULL,"8, 2nd Floor, Allied Grande Plaza, Opposite Garuda Mall, Magrath Road",05b6cbdf-e7d0ad60-5bd4ff-1458624295,"Brigade Road",Karnataka,www.nolimmits.in/,NULL
5364,"Three Quarter Chinese",1,560001,12.975399,77.602986,"080 2559 4631",1,0,NULL,NULL,NULL,NULL,"22, Amoeba Complex, Church Street",eb4ef3c8-5556025a-6025c0-1458624296,"Church Street",Karnataka,NULL,NULL
5365,"Punjabi Tadka Restaurant",1,560102,12.917534,77.650457,"+91 9611765699",1,0,NULL,NULL,NULL,NULL,"2733, 16th Cross, 27th Main, Opposite NIFT, Sector 1, HSR Layout",f0a0bd13-a5e675ff-d9436c-1458624296,"HSR Layout",Karnataka,NULL,NULL
5366,"Punjabi Tadka Restaurant",1,560001,12.976594,77.599271,"+91 9740815499",1,0,NULL,NULL,NULL,NULL,"74/2, Outer Ring Road, Appolo Clinic, Bellandur Junction, Bellandur",df7dd2b0-5d95050e-9c89f9-1458624296,Bellandur,Karnataka,NULL,NULL
5367,"Punjabi Tadka Restaurant",1,560001,12.976594,77.599271,"+91 8722402415",1,0,NULL,NULL,NULL,NULL,"Doddathoguru Road, Opposite Velankani & Salarpuria Infozon, Electronic City",f2899a87-2ebd1da3-7e25eb-1458624296,"Electronic City",Karnataka,NULL,NULL
5368,"Punjabi Tadka Restaurant",1,560001,12.976594,77.599271,"+91 9241746626",1,0,NULL,NULL,NULL,NULL,"92/3, Next to Home Town, Outer Ring Road, Marathahalli",267d49c2-72ca9ea3-0163a8-1458624296,Marathahalli,Karnataka,NULL,NULL
5369,"Punjabi Tadka Restaurant",1,560001,12.976594,77.599271,"+91 9611537510",1,0,NULL,NULL,NULL,NULL,"Opposite Vrindavan Tech Village, Outer Ring Road, Kadubisanahalli, Marathahalli",e13c9a75-edcb7b0e-5aec07-1458624297,Marathahalli,Karnataka,NULL,NULL
5370,"Punjabi Tadka Restaurant",1,560001,12.971230,77.714837,"+91 9902916985",1,0,NULL,NULL,NULL,NULL,"ITPL Main Road, 10th Main, Opposite Streling Brookeside Apartment, Kundanahalli Colony, Brookefield",ec69bf25-37648686-10b950-1458624297,Brookefield,Karnataka,NULL,NULL
5371,"Boondock Bistro",1,560066,12.975560,77.711778,"080 4965 2817",1,0,NULL,NULL,NULL,NULL,"33, Sundari Armadale, 3rd Floor, Whitefield Main Road, Whitefield",59fb6ef0-eaa3604d-cf1385-1458624297,Whitefield,Karnataka,www.boondockbistro.com/,NULL
5372,"Guzzlers Inn",1,560001,12.973659,77.606910,"080 2558 7336",1,0,NULL,NULL,NULL,NULL,"48 Rest House Road, Off Brigade Road, Brigade Road",1dc7cbbb-4c043f7c-bf9fa7-1458624297,"Brigade Road",Karnataka,NULL,NULL
5373,"Inchara Family Garden Restaurant JP Nagar",1,560078,12.904319,77.581250,"080 2634 9961",1,0,NULL,NULL,NULL,NULL,"22/1, Krishna Building, Puttenhalli Main Road, J.P Nagar, 6th Phase",ccd434f5-22296f72-2ea94b-1458624297,"JP Nagar",Karnataka,incharafamilygardenrestaurant.com/,NULL
5374,"Bistro Claytopia",1,560034,12.940136,77.626099,"080 49652993",1,0,NULL,NULL,NULL,NULL,"11, 80 Feet Road, Koramangala 1st Block",22c28193-d7aced32-be118a-1458624297,Koramangala,Karnataka,NULL,NULL
5375,Bageecha,1,560037,12.956947,77.701535,"080 2852 5123",1,0,NULL,NULL,NULL,NULL,"42/3, Airport To Whitefield Road, After Marathahalli Bridge, Marathahalli",77ff5498-83212cbd-42d349-1458624297,Marathahalli,Karnataka,www.bageecha.net.in/,NULL
5376,"Bierre Republic",1,560001,12.974695,77.607053,"080 4965 2786",1,0,NULL,NULL,NULL,NULL,"No.62/63, Pavilioin Mall, Brigade Road, Church Street",760cbeb5-83d39b0c-7d357e-1458624298,"Church Street",Karnataka,www.bierrerepublic.com/,
5377,"Bootlegger - Lavelle Road",1,560001,12.971225,77.597866,"080 4146 2747",1,0,NULL,NULL,NULL,NULL,"36 Vittal Mallya Road, Lavelle Road",6446f4e5-03b33aeb-f5e7f1-1458624298,"Lavelle Road",Karnataka,NULL,NULL
5378,Paprica,1,560037,12.956737,77.701079,"080 49652952",1,0,NULL,NULL,NULL,NULL,"95/3, Kote M.R Plaza, Outer Ring Road, Marathahalli",2a59dc7f-60dd80aa-60d186-1458624298,Marathahalli,Karnataka,NULL,NULL
5381,Carrots,1,560095,12.936915,77.640726,"080 4117 2812",1,0,NULL,NULL,NULL,NULL,"No. 607, First Floor, 80 Feet Road, Koramangala 6th Block",dbde94d9-df7b4078-e0a41c-1458714006,Koramangala,Karnataka,NULL,NULL
5382,"Green Onion",1,560001,12.975630,77.606623,"080 4965 3549",1,0,NULL,NULL,NULL,NULL,"43/44, Chandrprabha Complex M G Road, Residency Road",a06098f6-2d2240d8-e64fdc-1458714459,"Ashok Nagar",Karnataka,NULL,NULL
5383,"Green Onion",1,560001,12.976594,77.599271,"080 4965 3549",1,0,NULL,NULL,NULL,NULL,"4th Floor, Gopalan Innovation Mall",4c09e594-ad6395cc-8e902d-1458714460,Bannerghatta,Karnataka,NULL,NULL
5384,"Cafe Terra",1,560034,12.926513,77.636155,"080 4131 3553",1,0,NULL,NULL,NULL,NULL,"1004, 80 Feet Main Road, Near Wipro Signal, 1st Block, Koramangala",543d8f83-5cfddd7a-627e39-1458714460,Koramangala,Karnataka,www.cafe-terra.com/,NULL
5386,"The Biere Club",1,560001,12.970969,77.597564,"080 4965 3581",1,0,NULL,NULL,NULL,NULL,"20/2, Vittal Mallya Road, Lavelle Road",c5ede9a2-ab74f750-a20f9b-1458715016,"Lavelle Road",Karnataka,www.thebiereclub.com/,
5387,"37 China Town - High Grounds",1,581943,12.961552,77.615718,"+91 9686456156",1,0,NULL,NULL,NULL,NULL,"Hotel 37th Crescent, High Grounds, Race Course Road",4f428f0f-aa232bf4-7065a4-1458715016,"High Grounds",Karnataka,www.37thcrescent.in/,NULL
5388,"Aromas of South",1,560001,12.983971,77.578440,"080 4037 3738",1,0,NULL,NULL,NULL,NULL,"Hotel 37th Crescent, High Grounds, Race Course Road",3bce4fb1-5745ad4d-a34d4f-1458715017,"High Grounds",Karnataka,www.37thcrescent.in/,
5389,"Strawberry Moon - High Grounds",1,560001,12.983971,77.578440,"080 4037 3737",1,0,NULL,NULL,NULL,NULL,"Hotel 37th Crescent, High Grounds, Race Course Road",e8828483-2b5ac5e1-c15876-1458715017,"High Grounds",Karnataka,www.37thcrescent.in/,NULL
5390,"Silver Spoons - High Grounds",1,560001,12.983971,77.578440,"080 4037 3737",1,0,NULL,NULL,NULL,NULL,"Hotel 37th Crescent, High Grounds, Race Course Road",0fbac6fd-77ef23a2-5bb3b3-1458715017,"High Grounds",Karnataka,www.37thcrescent.in/,NULL
5391,"Millers 46",1,560052,12.991272,77.593918,"080 4114 8022",1,0,NULL,NULL,NULL,NULL,"46, Millers Road, Vasanth Nagar",4d669635-ee323060-1827c9-1458715159,"Vasanth Nagar",Karnataka,www.millers46.com/,
5392,"Barbeque Factory",1,560034,12.924812,77.633711,"080 4965 2921",1,0,NULL,NULL,NULL,NULL,"612/1, Lotus Building, 80 Feet Road, 4th Block, Koramangala",0834e335-cd1833cb-7815c2-1458715487,Koramangala,Karnataka,NULL,NULL
5393,"Barbeque Factory",1,560001,12.976594,77.599271,"080 4965 3304",1,0,NULL,NULL,NULL,NULL,"1200, 100 Feet Road, Indiranagar",3830f8ec-dd9429b4-b0adc6-1458715487,Indiranagar,Karnataka,NULL,NULL
5394,"Friend's Euro Fast Food",1,560095,12.936915,77.640726,"080 2891 3901",1,0,NULL,NULL,NULL,NULL,"354, 1st Main Road, Kormangala 7th Block",a9f5ac38-72535a32-b7b288-1458715487,Koramangala,Karnataka,NULL,NULL
5395,"Java City - Jayanagar",1,560001,12.976594,77.599271,"+91 9341220651",1,0,NULL,NULL,NULL,NULL,"63/2, 8th Main, 18th Cross, 3rd Block, Jayanagar",7046b595-e3396e72-b3d8f2-1458715487,Jayanagar,Karnataka,NULL,NULL
5396,"District 6 - Gateway Campus",1,560055,13.007844,77.557663,"080 4965 3360",1,0,NULL,NULL,NULL,NULL,"Gateway Campus G-03, G-04, G-05, Sheraton Hotel, Gateway Campus",b1258449-68407e04-95004f-1458715487,"Gateway Campus",Karnataka,,
5397,"Hyderabad Biryaani House",1,560025,12.963382,77.603489,"080 4965 3125",1,0,NULL,NULL,NULL,NULL,"7/1, Victoria Road, Richmond Town Area, Richmond Town",7d391f7e-40401845-964a25-1458715488,"Richmond Town",Karnataka,,
5398,"Hyderabad Biryaani House",1,560001,12.954628,77.682252,"080 4965 3496",1,0,NULL,NULL,NULL,NULL,"98, Sky Lark Plazzo, Total Mall, Old Airport Road",7b487194-3059a17a-8fab32-1458715488,"Old Airport Road",Karnataka,,
5399,"Hyderabad Biryaani House",1,560001,12.991560,77.571550,"080 4965 3499",1,0,NULL,NULL,NULL,NULL,"Arakere Gate, Opposite Reliance Mart, Bannerghatta Road	",d249bf67-edce45d4-6a11f8-1458715488,Bannerghatta,Karnataka,,
5400,"Hyderabad Biryaani House",1,560001,12.976594,77.599271,"080 4965 3207",1,0,NULL,NULL,NULL,NULL,"Sai Tower, Near Golkonda Chimney, Marathahalli",9e920e15-41ed9ed4-1d0e1c-1458715488,Marathahalli,Karnataka,,
5401,"Hyderabad Biryaani House",1,560001,12.976594,77.599271,"080 4965 3229",1,0,NULL,NULL,NULL,NULL,"6, Ramagondanahalli, Varthur Main Road, Whitefield",5bd4a6a0-7a47b6be-f1bed6-1458715489,Whitefield,Karnataka,,
5402,"Hyderabad Biryaani House",1,560064,13.057651,77.596762,"080 4965 3384",1,0,NULL,NULL,NULL,NULL,"407, 1st Floor, 4th Main, Kammanahalli Main Road",d4003f60-f79906c5-004bdc-1458715489,Kammanahalli,Karnataka,,
5403,"24th Main",1,560058,13.042333,77.529378,"080 2658 8620",1,0,NULL,NULL,NULL,NULL,"Cross Roads Inn, 827, 24th Main, 2nd Phase",6af6617f-9e89e098-d62f77-1458715489,"JP Nagar",Karnataka,NULL,NULL
5404,"Century Club",1,560001,12.980443,77.579718,"080 2221 4121",1,0,NULL,NULL,NULL,NULL,"1 Sheshadri Road",25610b36-6ee7bb15-797e74-1458715489,Malleswaram,Karnataka,www.centuryclub.in,centuryclub@vsnl.net
5405,"Sukh Sagar",1,,12.976336,77.578167,"080 2220 2255",1,0,NULL,NULL,NULL,NULL,"10, 3rd Main Road, Gandhinagar, Majestic, Bangalore",f14bd2a0-e0932d06-2e531f-1458715490,Majestic,Karnataka,sukhsagar.com/,NULL
5406,"Sukh Sagar",1,,12.937473,77.619963,"080 2553 3633",1,0,NULL,NULL,NULL,NULL,"1st Cross, 100 Feet Road, Opposite ING Bank, Kormangala 5th Block",f4b5c99b-2ac34dd5-df7f11-1458715490,Koramangala,Karnataka,sukhsagar.com/,NULL
5407,"Sukh Sagar",1,,13.016957,77.636281,"080 4126 4476",1,0,NULL,NULL,NULL,NULL,"86, Kammanahalli Main Road, Kammanahalli",d86cd5f6-79a36799-123ce2-1458715490,Kammanahalli,Karnataka,sukhsagar.com/,NULL
5408,"Sukh Sagar",1,560009,12.977029,77.577305,"080 2663 4132",1,0,NULL,NULL,NULL,NULL,"30th Cross, 8th Main, 4th Block, Jayanagar",c9dd6eac-5c0468bd-ee3ee3-1458715490,Jayanagar,Karnataka,sukhsagar.com/,NULL
5409,"Rangoli - The Metro Art Center - MG Road",1,560001,12.976594,77.599271,,1,0,NULL,NULL,NULL,NULL,"Rangoli-Metro Art Center, MG Road Boulevard",15169bf3-c7f9b34b-3e7971-1458715490,"MG Road",Karnataka,rangoli.bmrc.co.in/,NULL
5410,"Retro The Lounge Bar",1,560001,12.976594,77.599271,"080 2536 3694",1,0,NULL,NULL,NULL,NULL,"18/1, Cambridge Road, Above Canara Bank, Ulsoor",67b44fec-32a3d5ad-89f923-1458715490,Ulsoor,Karnataka,www.retroloungebar.com/,
5411,"Bagmane Tech Park",1,560093,12.977295,77.657908,"080 4032 9999",1,0,NULL,NULL,NULL,NULL,"4 Krishnappa Garden, CV Raman Nagar",2d0e89da-c8ee2979-734024-1458715491,"CV Raman Nagar",Karnataka,bagmanegroup.com/,NULL
5412,"Plan B",1,560077,13.063954,77.650361,"+91 8880022737",1,0,NULL,NULL,NULL,NULL,"20, Castle Street, Brigade Road, Ashok Nagar",1bb05f79-0dc13e31-8f34fb-1458715491,"Ashok Nagar",Karnataka,NULL,NULL
5413,"Plan B",1,,12.956947,77.599270,"+91 8880022737",1,0,NULL,NULL,NULL,NULL,"3, Rhenius Street, Opposite Hockey Stadium, Shanti Nagar",3b8b6f6c-22449a3b-7a5263-1458715491,"Shanti Nagar",Karnataka,NULL,NULL
5415,"Pepper Cafe",1,560008,12.987887,77.616853,"080 4113 0000",1,0,NULL,NULL,NULL,NULL,"9 St Johns Road, Ulsoor",c0915434-01cb739d-06fef8-1458793759,Ulsoor,Karnataka,NULL,NULL
5416,Raaga,1,560038,12.978346,77.640787,"080 4965 2821",1,0,NULL,NULL,NULL,NULL,"No.3, CMH Road, Opposite New Shanthi Sagar, Indiranagar",31eb17ed-20a4514d-614d01-1458793759,Indiranagar,Karnataka,http://www.raagarestaurant.in/,NULL
5417,"Bhojohori Manna",1,560095,12.911985,77.590087,"080 4965 3129",1,0,NULL,NULL,NULL,NULL,"42, 7th Cross, JP Nagar",10274a18-c03d9310-c2d6bf-1458793759,"JP Nagar",Karnataka,bhojohorimanna.com/,
5419,"Mezzaluna - Movenpick Hotel and Spa Bangalore",1,560001,13.030245,77.570578,"080 4965 2856",1,0,NULL,NULL,NULL,NULL,"Movenpick Hotel & Spa Bangalore, 115, Gokula Extension, New BEL Road",c3fb0348-654586bb-d80a1c-1458793760,"New BEL Road",Karnataka,NULL,NULL
5420,"My Place - Movenpick Hotel and Spa Bangalore",1,560001,13.030245,77.570578,"080 4965 2719",1,0,NULL,NULL,NULL,NULL,"Movenpick Hotel & Spa Bangalore, 115, Gokula Extension, New BEL Road",df531712-5f1705b1-939b05-1458793760,"New BEL Road",Karnataka,NULL,NULL
5421,Raaga,1,560038,12.978346,77.640787,"080 4965 2821",1,0,NULL,NULL,NULL,NULL,"3, CMH Road, Opposite New Shanthi Sagar, Indiranagar",9fadfbfd-4e2180a6-576639-1458793985,Indiranagar,Karnataka,http://www.raagarestaurant.in/,NULL
5422,"Bhojohori Manna",1,560001,12.941806,77.623220,"080 4965 3135",1,0,NULL,NULL,NULL,NULL,"668/B, 6th Block, Koramangala",8701409a-7f214b1d-f9974e-1458793986,Koramangala,Karnataka,bhojohorimanna.com/,
5423,"Swiss Bakery Cafe - Movenpick Hotel and Spa Bangalore",1,560001,13.030245,77.570578,"080 49653174",1,0,NULL,NULL,NULL,NULL,"Movenpick Hotel & Spa Bangalore, 115, Gokula Extension, New BEL Road",e58b3721-087c810a-b5add5-1458793986,"New BEL Road",Karnataka,NULL,NULL
5424,"Obsidian Sports and Music Bar - Movenpick Hotel and Spa Bangalore",1,560001,13.030245,77.570578,"080 4965 2495",1,0,NULL,NULL,NULL,NULL,"Movenpick Hotel & Spa Bangalore, 115, Gokula Extension, New BEL Road",73a76692-9eec7c11-0e8a3e-1458793986,"New BEL Road",Karnataka,NULL,NULL
5425,"Sky Brew - Movenpick Hotel and Spa Bangalore",1,560001,13.030245,77.570578,"080 4965 2540",1,0,NULL,NULL,NULL,NULL,"Movenpick Hotel & Spa Bangalore, 115, Gokula Extension, New BEL Road",d2f56360-0e55c656-e80a31-1458793987,"New BEL Road",Karnataka,NULL,NULL
5426,"Herbs and Spice",1,560066,12.969807,77.749963,"080 2845 2803",1,0,NULL,NULL,NULL,NULL,"154, Whitefield Main Road, Whitefield, Bangalore",8c844c2f-cfbb8a92-0c3b03-1458794130,Whitefield,Karnataka,NULL,NULL
5427,"The Humming Tree",1,560038,12.978346,77.640787,"080 3364 2696",1,0,NULL,NULL,NULL,NULL,"949, 12th Main Road, Doopanahalli, Indira Nagar",99f67812-1261a1fd-8db7ff-1458794130,Indiranagar,Karnataka,NULL,NULL
5428,"Sanadige - Goldfinch Hotel",1,560001,12.976594,77.599271,"080 4965 3023",1,0,NULL,NULL,NULL,NULL,"32/3, Crescent Road, High Grounds, Off Race Course Road, Madhava Nagar (Goldfinch Hotel)",e5477be8-b65bc2e5-889db2-1458794147,"High Grounds",Karnataka,NULL,NULL
5429,"The Kabab Studio - Goldfinch Hotel",1,560001,12.976594,77.599271,"080 4965 2627",1,0,NULL,NULL,NULL,NULL,"32/3, Crescent Road, High Grounds, Off Race Course Road, Madhava Nagar (Goldfinch Hotel)",e1980527-16c58174-e0e6e9-1458794147,"High Grounds",Karnataka,NULL,NULL
5430,"Banjara - Goldfinch Hotel",1,560001,12.976594,77.599271,"080 4965 3327",1,0,NULL,NULL,NULL,NULL,"32/3, Crescent Road, High Grounds, Off Race Course Road, Madhava Nagar (Goldfinch Hotel)",c1d8a376-f578777c-8fcdd1-1458794147,"High Grounds",Karnataka,NULL,NULL
5431,"Indian Bank - MG Road",1,,12.974632,77.609750,"080 2295 8832",1,0,NULL,NULL,NULL,NULL,"110, United Mansions, MG Road",c6496265-705b031b-dc48ef-1458794148,"MG Road",Karnataka,www.indianbank.in,NULL
5432,"Wang's Kitchen",1,560102,12.908136,77.647608,"080 3925 3925",1,0,NULL,NULL,NULL,NULL,"27th Main, Sector 1, Opposite NIFT College, HSR Layout",48343112-f42731c1-5e819c-1458794516,"HSR Layout",Karnataka,NULL,NULL
5438,"Chung's Chinese Corner",1,560001,12.976594,77.599271,"080 2664 4700",1,0,NULL,NULL,NULL,NULL,"295 Sri Krishna Compelx, 10th Main, Jayanagar 3rd Block",49601cf7-445258aa-e1b3c9-1458795810,Jayanagar,Karnataka,NULL,NULL
5439,"Chung's Chinese Corner",1,560001,13.096507,77.542059,"080 4965 2886",1,0,NULL,NULL,NULL,NULL,"88/1, Shubha Arcade, 16th Cross, Margosa Road",5177534e-48b7618f-7b12c2-1458795811,Malleswaram,Karnataka,NULL,NULL
5440,"Chung's Chinese Corner",1,560001,12.978301,77.637948,"080 2525 0500",1,0,NULL,NULL,NULL,NULL,"537, Robby Arcade, CMH Road",c6521cb7-5bf7c270-692132-1458795811,Indiranagar,Karnataka,NULL,NULL
5441,"Chung's Chinese Corner",1,560001,12.976594,77.599271,"080 3292 3325",1,0,NULL,NULL,NULL,NULL,"401, 5th A Main, 2nd Block, HRBR Layout",e9440862-0fd2a835-e3e48a-1458795811,"Kalyan Nagar",Karnataka,NULL,NULL
5442,"Chung's Chinese Corner",1,560001,12.976594,77.599271,"080 3221 1006",1,0,NULL,NULL,NULL,NULL,"13, 106, West Minster Building",cc6decc4-476a1e88-f747e0-1458795811,"Cunningham Road",Karnataka,NULL,NULL
5443,"Mr. Meetha Ram",1,560034,12.916586,77.632284,"+91 9902070770",1,86,www.areahop.com_Mr._Meetha_Ram.jpg,image/jpeg,2951023,"2016-03-24 07:41:38","5th Main Rd, Sector 6, HSR Layout",NULL,"HSR Layout",NULL,,
5444,"Mr. Meetha Ram",1,560078,12.910117,77.590498,"+91 9902070770",1,86,NULL,NULL,NULL,NULL,"449, 9th Cross, 2nd Phase, JP Nagar",NULL,"HSR Layout",NULL,,
5445,Bajji,1,560102,12.908136,77.647608,"080 6565 8585",1,86,www.areahop.com_Bajji_2.jpg,image/jpeg,2052390,"2016-03-24 17:43:28","4, 24th Main, 2nd Sector, Opposite Power Station",NULL,"HSR Layout",Karnataka,,
5446,"Apple Fitness",1,560102,12.912154,77.648831,"+91 9019213616",1,86,areahop-apple-fitness.jpg,image/jpeg,7954,"2016-07-08 11:50:32","2333, 24th Main Rd, Vanganahalli, 1st Sector, HSR Layout 5th Sector",NULL,"HSR Layout",NULL,http://www.applefitnessindia.com/index.html,info@applefitnessindia.com
5448,"Art Storm",1,560103,12.937530,77.701367,"080 42031447",1,98,NULL,NULL,NULL,NULL,"2nd Floor, Sathyabushana Complex, Panathur Main Road",NULL,Kadubeesanahalli,NULL,www.artstorm.in,info@artstorm.in
5449,"Lounge Republique",1,560102,12.913771,77.629270,"080 6533 1212",1,86,NULL,NULL,NULL,NULL,"253, 1st Floor, 5th Main and 17th Cross Road, Sector 6, HSR Layout",NULL,"HSR Layout",NULL,,
5452,"Hyderabad Biryaani House",1,560037,12.959172,77.697419,"080 65586558",1,98,image3.JPG,image/jpeg,2023174,"2016-04-03 13:44:39","19/1, Classic Aura, Kadubisanahalli",NULL,Marathahalli,NULL,,
5453,"Biriyani Zone",1,560037,12.951884,77.700183,"96864 09911",0,98,20160405_214018.jpg,image/jpeg,3191511,"2016-04-05 18:09:40","92/5, Outer Ring Road",NULL,Marathahalli,NULL,www.biriyanizone.com,
5454,Watsons,1,560008,12.992104,77.619213,"080 3951 2710",1,0,NULL,NULL,NULL,NULL,"Skywalk, Assaye Rd, Halasuru",dcc0043c-c96f14da-6a1924-1460013958,Halasuru,Karnataka,,
5455,Watsons,1,560052,12.988666,77.593104,,1,0,NULL,NULL,NULL,NULL,"7, Kodava Samaj Building, 1st Main",0134e65e-dea033f8-a64fb0-1460013958,"Vasanth Nagar",Karnataka,,
5456,Watsons,1,560078,12.906385,77.592947,,1,0,NULL,NULL,NULL,NULL,"688, 15th Cross, 100 ft Ring Road",da66237a-8d76e027-2f0618-1460013959,"JP Nagar",Karnataka,,
5457,Samarkand,1,560001,12.981305,77.601386,"080 41113366",1,0,NULL,NULL,NULL,NULL,"66, Gem Plaza, Infantry Road",a122bf7c-4f275aeb-1bcf83-1460013959,"Infantry Road",Karnataka,www.bjngroup.in/restaurants/samarkhand,NULL
5458,Delicacy,1,560075,12.971757,77.655193,,1,0,NULL,NULL,NULL,NULL,"M22, 10th Main Road, New Tippasandra",b1b45dfb-796c9740-a25608-1460013959,"Jeevan Bhima Nagar",Karnataka,NULL,NULL
5459,Delicacy,1,560034,12.931732,77.635714,,1,0,NULL,NULL,NULL,NULL,"972/C, S.T.Bed, 4th Block",5fe221db-11b672f2-462a8f-1460013959,Koramangala,Karnataka,NULL,NULL
5460,Delicacy,1,560043,13.028348,77.633260,,1,0,NULL,NULL,NULL,NULL,"L.G.R Complex, Chelekere Ring Road",93f05d2e-bc0f9292-90c3af-1460013960,"Kalyan Nagar",Karnataka,NULL,NULL
5461,Delicacy,1,560004,12.943751,77.573760,,1,0,NULL,NULL,NULL,NULL,"313, Lalitha Towers, 4th Cross, OMBR layout",c8b4435a-60ffac8b-1e8618-1460013960,Banaswadi,Karnataka,NULL,NULL
5462,Delicacy,1,560005,12.999493,77.622886,,1,0,NULL,NULL,NULL,NULL,"97, Wheeler Road Extension, Cooke Town",25f6727e-46b19c61-ca0005-1460013960,"Frazer Town",Karnataka,NULL,NULL
5463,Delicacy,1,560004,12.943751,77.573760,,1,0,NULL,NULL,NULL,NULL,"8-9, Lakshmi Mansion, 18 Cross",c570ac06-5982e902-67461c-1460013960,"CV Raman Nagar",Karnataka,NULL,NULL
5464,Delicacy,1,560076,12.884510,77.603552,,1,0,NULL,NULL,NULL,NULL,"17 & 18, Kotanur Dine Main Road, Puttanahalli",0f49b57c-12bdbf71-5e98c3-1460013960,"JP Nagar",Karnataka,NULL,NULL
5465,"Bathinda Junction",1,560034,12.921681,77.634271,"+91 98861 01619",1,0,NULL,NULL,NULL,NULL,"42, 4th B Cross, 5th Block",ad8b641f-3b753d48-d35dd3-1460013961,Koramangala,Karnataka,NULL,bathindajunction.restaurant@gmail.com
5466,"Backbencherz Cafe",1,560037,13.025254,77.590648,,1,0,NULL,NULL,NULL,NULL,"1376, 6th Main Road, 5th Cross, AECS layout",5a93f4ba-ad1ec35c-c42cc5-1460013961,Marathahalli,Karnataka,,cafebackbencherz@gmail.com
5467,Momoz,1,560076,12.971598,77.594562,"080 41739352",1,0,NULL,NULL,NULL,NULL,"A/4, 100 ft Road, KHB Colony, 5th Block",7266f8d7-ab8b50e6-1f047a-1460013961,Koramangala,Karnataka,www.themomoz.com,vikash.vikky@gmail.com
5468,Momoz,1,560076,12.971598,77.594562,"080 4167 7117",1,0,NULL,NULL,NULL,NULL,"805/A, 16th Main, 7th Cross, Stage 2",ace2a2f9-5c8c4336-0eaa5a-1460013961,"BTM Layout",Karnataka,www.themomoz.com,NULL
5469,Momoz,1,560033,12.971598,77.594562,,1,0,NULL,NULL,NULL,NULL,"2, Nehru Road, Yadava Layout,",2f2bfb34-095302c5-ac0ef8-1460013961,Kammanahalli,Karnataka,www.themomoz.com,NULL
5470,"China Bowl",1,560095,12.936915,77.640726,"+91 72593 71374",1,0,NULL,NULL,NULL,NULL,"99, ARD Complex, 5th Cross, 6th Block",bc964d8b-e923c181-f85672-1460013961,Koramangala,Karnataka,NULL,NULL
5471,"Red Fork",1,560008,12.967305,77.643309,"080 3075 2480",1,0,NULL,NULL,NULL,NULL,"594, 12th Main, HAL 2nd Stage",1fe693c7-0edfd92f-6f3a73-1460013961,Indiranagar,Karnataka,http://www.redforkdeli.com/,zarine.kharas@gmail.com
5472,"The Only Place",1,560001,12.975399,77.602986,,1,0,NULL,NULL,NULL,NULL,"13, Musuem Road, Church Street",866da09e-7842ad77-275b53-1460013962,"Central Bangalore",Karnataka,NULL,NULL
5473,"The Glass House - Deli Bistro Bar",1,560001,12.970475,77.597350,"080 6541 9999",1,0,NULL,NULL,NULL,NULL,"25/2, Lavelle Road",58c0c6a1-a0839994-14b6a7-1460016822,"Lavelle Road",Karnataka,NULL,NULL
5474,"BYLI - Bet You Love It!",1,560001,12.976594,77.599271,"080 4965 3104",1,0,NULL,NULL,NULL,NULL,"G-1/2, First Avenue, 5th Main, 2nd Block, HRBR Layout",d9eef6a3-2102fe02-3e45df-1460016823,"Kalyan Nagar",Karnataka,NULL,NULL
5475,Chili's,1,560001,12.976594,77.599271,"080 4965 2779",1,0,NULL,NULL,NULL,NULL,"1135, HAL 2nd Stage, 100 Feet Road",578d929b-8e978a27-3f7017-1460016823,Indiranagar,Karnataka,NULL,NULL
5476,Chili's,1,560001,12.976594,77.599271,"080 6726 6406",1,0,NULL,NULL,NULL,NULL,"20, Ground Floor, Phoenix Market City",81416b7d-5a21e39a-5e4410-1460016823,Whitefield,Karnataka,NULL,NULL
5477,Chili's,1,560001,12.976594,77.599271,"080 4965 2788",1,0,NULL,NULL,NULL,NULL,"2nd Floor, Orion Mall, Dr. Rajkumar Road",9de8ed83-beb2e850-cac527-1460016823,Malleswaram,Karnataka,NULL,NULL
5478,"Oh! Calcutta",1,560001,12.975640,77.602224,"080 4965 3405",1,0,NULL,NULL,NULL,NULL,"14,Church Street, 2nd Floor",6e7eef15-729a221e-325813-1460016823,"Church Street",Karnataka,,
5479,"Cafe Max",1,560001,13.037617,77.642639,"080 4120 0469",1,0,NULL,NULL,NULL,NULL,"716, Goethe Institute, CMH Road",cc8c847a-8685196d-10c4c6-1460016824,Indiranagar,Karnataka,cafe-max.in/,NULL
5480,"1522 - The Pub",1,560091,12.986641,77.490429,"080 2357 4799",1,0,NULL,NULL,NULL,NULL,"1522,Lepakshi Building, 17th Cross Road,2nd Stage Rajajinagar",ef079487-ac4d3f00-1d11b3-1460016824,Malleswaram,Karnataka,NULL,NULL
5481,"1522 - The Pub",1,560091,12.933532,77.609920,,1,0,NULL,NULL,NULL,NULL,"3, 80 Feet Road, 4-C Block",621229e6-8c137f8b-1e75ea-1460016824,Koramangala,Karnataka,NULL,NULL
5482,"7 Biryanis by Kuchipudi",1,560001,12.976594,77.599271,,1,0,NULL,NULL,NULL,NULL,"612/1, Lotus Building, 80 Feet Road, 4th Block",6547306b-7080795d-03c929-1460016825,Koramangala,Karnataka,NULL,NULL
5483,Village,1,560011,12.961024,77.597252,,1,0,NULL,NULL,NULL,NULL,"6th Floor, Bangalore Central Mall, 9th Block",fc418e8e-2d9a9e0a-a42288-1460016825,Jayanagar,Karnataka,,
5484,Village,1,560035,12.979797,77.693594,,1,0,NULL,NULL,NULL,NULL,"1st Floor, Total Mall",636f688f-d8f64d26-247ed3-1460016825,"Sarjapur Road",Karnataka,,
5485,"Earth Plate",1,,12.971598,77.594562,,1,0,NULL,NULL,NULL,NULL,"1, 14th Main, 17th Cross, Sector 7",62f42df9-53fdb1e5-52f32c-1460016825,"HSR Layout",Karnataka,NULL,NULL
5486,"Chutney Chang",1,,12.971598,77.594562,,1,0,NULL,NULL,NULL,NULL,"HM Eleganza, 31, Museum Road",d311f4cc-d41c36fe-7fcbaf-1460016825,"Church Street",Karnataka,chutneychang.in/,NULL
5487,"Chutney Chang",1,,12.971598,77.594562,,1,0,NULL,NULL,NULL,NULL,"Cosmopolitan Club, 22nd Cross, 3rd Block",bd545488-f61fed31-fb9f47-1460016825,Jayanagar,Karnataka,chutneychang.in/,NULL
5488,"Indian Paratha Company",1,,12.971598,77.594562,,1,0,NULL,NULL,NULL,NULL,"1/2, Guttahalli, Kasaba Hobli",a7db0b6e-991a8f33-a9a645-1460016825,Devanahalli,Karnataka,NULL,NULL
5489,Murli,1,560102,12.911862,77.644592,,1,0,NULL,NULL,NULL,NULL,"207, Green Glen Layout",e95b9994-08dfe831-5bea58-1460016825,Bellandur,Karnataka,murlionline.com/,NULL
5490,"Mustard Cafe",1,560001,12.976594,77.599271,,1,0,NULL,NULL,NULL,NULL,"1053, 1st Floor, 80 Feet Road, 3rd Block",515b30e4-6e5941e9-592c43-1460016826,Koramangala,Karnataka,NULL,NULL
5491,"Woodstok (Resto - Cafe)",1,560001,12.976594,77.599271,,1,0,NULL,NULL,NULL,NULL,"3777, Domlur Service Road, HAL 2nd Stage",0049fde2-1bb9839a-5072da-1460016826,Indiranagar,Karnataka,NULL,NULL
5492,"Tea Brew",1,560001,12.976594,77.599271,,1,0,NULL,NULL,NULL,NULL,"172, 2nd Cross Road",69f5918b-bcf33f77-ffe53a-1460016826,Indiranagar,Karnataka,NULL,NULL
5493,"Little Italy",1,560001,12.976594,77.599271,,1,0,NULL,NULL,NULL,NULL,"2017, HAL 2nd Stage, 100 Feet Road",e48bca10-38babb2f-fe1d0c-1460016826,Indiranagar,Karnataka,littleitaly.in/,NULL
5494,"Little Italy",1,,12.971598,77.594562,,1,0,NULL,NULL,NULL,NULL,"32, Krishna Industrail Area, Hosur Road",aaf04d4e-d0e32d80-6bf918-1460016827,"BTM Layout",Karnataka,littleitaly.in/,NULL
5495,"Little Italy",1,,12.971598,77.594562,,1,0,NULL,NULL,NULL,NULL,"415, HRBR 2nd Block Extension, 80 feet Road",d5d3fe18-e40a0fc4-44c7e0-1460016827,"Kalyan Nagar",Karnataka,littleitaly.in/,NULL
5496,"Little Italy",1,,12.971598,77.594562,,1,0,NULL,NULL,NULL,NULL,"12, 32nd Cross, 7th Block",1689b79a-c334dd86-853b2b-1460016827,Jayanagar,Karnataka,littleitaly.in/,NULL
5497,Peacock,1,,12.971598,77.594562,,1,0,NULL,NULL,NULL,NULL,"57, 2nd Floor, 100 Feet Road",8c85d915-60d095f8-19c62b-1460016827,Indiranagar,Karnataka,NULL,NULL
5498,Dishoom,1,,12.971598,77.594562,,1,0,NULL,NULL,NULL,NULL,"541/543, 4th Floor, Amarjyoti Layout, Domlur",8d579835-468642af-61ab3f-1460016827,Koramangala,Karnataka,NULL,NULL
5499,"Helloo Delhi",1,,12.971598,77.594562,,1,0,NULL,NULL,NULL,NULL,"17, 18th Cross Road, Service Road, Sector 3",1935f1b5-ef04981a-30dcf4-1460016827,"HSR Layout",Karnataka,NULL,NULL
5500,"The Lost Caravan",1,,12.971598,77.594562,,1,0,NULL,NULL,NULL,NULL,"55 Prestige RR Building",27380e53-78f10a25-9db868-1460016827,"Church Street",Karnataka,NULL,NULL
5501,"Cafe Mangii",1,560001,12.971132,77.597251,,1,0,NULL,NULL,NULL,NULL,"204/A, Comet Block, Vittal Mallya Road",e1548b26-c17a7674-4ea2e7-1460016827,"UB City",Karnataka,NULL,NULL
5502,"Cafe Mangii",1,560001,12.976594,77.599271,,1,0,NULL,NULL,NULL,NULL,"3rd Floor, Orion Mall, Dr. Rajkumar Road",702a156c-b700b00e-65a9d5-1460016828,Malleswaram,Karnataka,NULL,NULL
5503,"California Pizza Kitchen",1,560008,12.981994,77.625613,,1,0,NULL,NULL,NULL,NULL,"284, Ground Floor, 100 Feet Road",58d359e1-5107c058-690325-1460052975,Indiranagar,Karnataka,NULL,NULL
5504,"California Pizza Kitchen",1,560048,12.985359,77.708126,,1,0,NULL,NULL,NULL,NULL,"1st Floor, Phoenix Market City Mall",7754049f-1701feb9-e67c81-1460052975,Whitefield,Karnataka,NULL,NULL
5505,"California Pizza Kitchen",1,560095,12.933141,77.614867,,1,0,NULL,NULL,NULL,NULL,"105, 1st Main, Jyothi Nivas College Road, 5th Block",3b755703-2c96d3a5-12fab6-1460052975,Koramangala,NULL,NULL,NULL
5506,Ebony,1,560001,12.976594,77.599271,,1,0,NULL,NULL,NULL,NULL,"84 M.G.Road, Barton Center, 13th Floor",f08cee15-f5fcb81a-5e5376-1460052975,"MG Road",Karnataka,NULL,NULL
5507,"Cafe Mezzuna",1,560001,12.976594,77.599271,,1,0,NULL,NULL,NULL,NULL,"15/16, Ground Floor, House of Lords",bd764986-28333996-f9cf58-1460052975,"St Marks Road",Karnataka,www.speciality.co.in,NULL
5508,"Golkonda Chimney",1,560037,12.956044,77.713976,,1,0,NULL,NULL,NULL,NULL,"42/2, Varthur Main Road,",e99ff1f3-6bdeb248-5fc8c0-1460052976,Marathahalli,Karnataka,golkondachimney.co/,NULL
5509,"The Fisherman's Wharf",1,560102,12.907288,77.663606,,1,0,NULL,NULL,NULL,NULL,"26, Ambalipura Village, Haralur Road",809532c8-ef21b9b4-6988b1-1460052976,"Sarjapur Road",Karnataka,thefishermanswharf.in/,NULL
5510,"Taaza Thindi",1,560041,12.925940,77.583042,,1,0,NULL,NULL,NULL,NULL,"1004, 26th Main, 4th Block",5852ad3a-de14484f-d07b85-1460052976,Jayanagar,Karnataka,,
5511,Chianti,1,560095,12.936915,77.640726,,1,0,NULL,NULL,NULL,NULL,"12, 17th Main, 1st Cross Road",98fa7d4d-01d3d350-1e1cc0-1460052976,Koramangala,Karnataka,NULL,NULL
5512,Chianti,1,560008,12.967305,77.643309,,1,0,NULL,NULL,NULL,NULL,"960, 12th Main, HAL 2nd Stage",ee53009d-6b792d1f-b9dc6d-1460052976,Indiranagar,Karnataka,NULL,NULL
5513,Chianti,1,560001,12.976594,77.599271,,1,0,NULL,NULL,NULL,NULL,"8, Pappanna Street",a42c952f-8f3d6144-46e0cd-1460052976,"St Marks Road",Karnataka,NULL,NULL
5514,"Cafe Thulp",1,560038,12.978346,77.640787,,1,0,NULL,NULL,NULL,NULL,"39, 12th Main Junction, HAL 3rd Stage",064d3494-a8fc5b1f-60398f-1460052977,Indiranagar,Karnataka,NULL,NULL
5515,"Cafe Thulp",1,560034,12.926513,77.636155,,1,0,NULL,NULL,NULL,NULL,"998, 1st Main, 1st Block",d2451cbc-1601b5a0-db8802-1460052977,Koramangala,Karnataka,NULL,NULL
5516,"Cafe Thulp",1,560084,13.017383,77.633547,,1,0,NULL,NULL,NULL,NULL,"21, 2nd Cross, CPR Layout, Kammanahalli Road",8dd3f07d-2523023a-89d2ce-1460052977,Kammanahalli,Karnataka,NULL,NULL
5517,"Cafe Thulp",1,560008,12.991276,77.619465,,1,0,NULL,NULL,NULL,NULL,"5/1, Skywalk, Near Body Craft, Assaye Road",0212dcb7-b972ecd9-edeb61-1460052977,Ulsoor,Karnataka,NULL,NULL
5518,LOFT38,1,560038,12.969360,77.641273,,1,0,NULL,NULL,NULL,NULL,"763, 100 Feet Road",f6c8e152-3e02afce-9b5565-1460052977,Indiranagar,Karnataka,NULL,NULL
5519,"Moriz Restaurant",1,560066,12.962935,77.712299,,1,0,NULL,NULL,NULL,NULL,"614, C Block, AECS Layout",0cc52675-719e8f5b-480323-1460052977,Brookefield,Karnataka,NULL,NULL
5520,"Moriz Restaurant",1,560100,12.843346,77.648184,,1,0,NULL,NULL,NULL,NULL,"1, Ajmera Avenue, Neeladri, Phase 1",d4d7b39e-1622e2d6-afa018-1460052977,"Electronic City",Karnataka,NULL,NULL
5521,"Moriz Restaurant",1,560008,12.986439,77.619726,,1,0,NULL,NULL,NULL,NULL,"38/5, Meanee Avenue, Tank Road",e80f2531-1aeff1da-9e6442-1460052977,Ulsoor,Karnataka,NULL,NULL
5522,"Murphy's Brewhouse - The Paul Bangalore",1,560071,12.953296,77.640812,,1,0,NULL,NULL,NULL,NULL,"The Paul Bangalore, 139/28, Opposite Embassy Golf Links",088adaed-88b97052-29bc64-1460052978,Domlur,Karnataka,NULL,NULL
5523,"Mr. Singh Da Dhaba ",1,560078,12.898773,77.576409,"+91 9986012853",1,0,NULL,NULL,NULL,NULL,"Kumaraswamy Layout, Teachers Colony ",NULL,"Kumaraswamy Layout",NULL,,
5524,Mezzeh,1,560027,12.991316,77.554520,,1,0,NULL,NULL,NULL,NULL,"32, 80ft Road, 12th Main",4ed01a46-03dde4f6-4fbd11-1460114940,Indiranagar,Karnataka,,
5525,"Art of Delight",1,560001,12.974437,77.609349,"080 4091 3229",1,0,NULL,NULL,NULL,NULL,"44/1, Residency Road, Shanthala Nagar",6f268c1a-1d530a04-51d0e9-1460114941,"Ashok Nagar",Karnataka,,
5526,"The Fat Chef",1,560066,12.956065,77.729895,"080 4099 2981",1,0,NULL,NULL,NULL,NULL,"Jagriti, Varthur Main Road",765ba246-fa21939c-cac1a4-1460114941,Whitefield,Karnataka,www.thefatchef.co.in,NULL
5527,Byblos,1,560038,12.978346,77.640787,"080 2521 4131",1,0,NULL,NULL,NULL,NULL,"842/A, 100 ft Road, 1st Stage",0cdb29f6-26f65697-8e21e5-1460114941,Indiranagar,Karnataka,www.byblosrestaurant.in,info@byblosrestaurant.in
5528,Aubree,1,560003,13.003515,77.578427,"+91 9611117777",1,0,NULL,NULL,NULL,NULL,"41/1, 2nd Main Road",dd926470-99d46903-d79d6c-1460114941,Vyalikaval,Karnataka,www.aubree.in,eatplaylove@aubree.in
5530,BelgYum,1,560048,12.985359,77.708126,"080 49653058",1,0,NULL,NULL,NULL,NULL,"B-42, Pheonix Market City Mall",74ef8c0a-5f64583d-8275e8-1460114942,Whitefield,Karnataka,www.belgyum.in,info.belgyum@gmail.com
5531,"Holy Flames",1,560037,12.955827,77.715286,"+91 9019025555",1,0,NULL,NULL,NULL,NULL,"32/30, Varthur Road, Silver Springs Layout",f7406d34-fcd2ff1d-8c3eae-1460114942,Marathahalli,Karnataka,www.holyflames.in,NULL
5532,Hoppipola,1,560008,12.967208,77.641480,"080 2521 7070",1,0,NULL,NULL,NULL,NULL,"100 Feet Road, HAL 2nd Stage",8e7e939c-46fc013a-bccf06-1460114942,Indiranagar,Karnataka,www.speciality.co.in/hoppipola/bangalore.html,
5533,Hoppipola,1,560001,12.975399,77.602986,"080 25597712",1,0,NULL,NULL,NULL,NULL,"3rd Floor, 14, Church Street",f00d237e-83e75dd5-c5d3ca-1460114942,"Central Bangalore",Karnataka,www.speciality.co.in/hoppipola/bangalore.html,
5534,Hunan,1,560095,13.108696,77.575912,"080 25520154",1,0,NULL,NULL,NULL,NULL,"123, 1st Floor, 1st Main, JNC Road, KHB Colony, 5th Block",0dc1201a-66df6953-20505b-1460114942,Koramangala,Karnataka,www.hunan.co.in,info@hunan.co.in
5535,Hunan,1,560094,13.035124,77.567664,"080 23413337",1,0,NULL,NULL,NULL,NULL,"10, Samruddi, 1st Main, New BEL Road",a828e9ef-0fa97828-9ad229-1460114943,"New BEL Road",Karnataka,www.hunan.co.in,info@hunan.co.in
5536,Zaitoon,1,560008,12.959946,77.647443,"080 41671777",1,0,NULL,NULL,NULL,NULL,"138, Maruthi Towers, HAL Airport Road",2e9c6a18-f3b5b470-9528a9-1460114943,Kodihalli,Karnataka,www.zaitoongroup.in,NULL
5537,"Royal Andhra Spice",1,560098,12.907805,77.519663,,1,0,NULL,NULL,NULL,NULL,"60 Feet Road, BEML Layout",8f029a2d-6096bffc-0c39a7-1460114943,"Rajarajeshwari Nagar",Karnataka,NULL,NULL
5538,"My Cousin's Place",1,560100,12.847982,77.657969,,1,0,NULL,NULL,NULL,NULL,"59/2, Velankani Drive, Phase 1",0a5419ad-5dabc1af-66c66a-1460114943,"Electronic City",Karnataka,NULL,NULL
5539,"Hotel Fanoos",1,560025,12.957663,77.605960,"+91 9886399614",1,0,NULL,NULL,NULL,NULL,"17, Hosur Road",2b376e1d-1d488b15-8d7db6-1460114943,"Richmond Town",Karnataka,NULL,NULL
5540,Subz,1,560011,12.933674,77.589965,,1,0,NULL,NULL,NULL,NULL,"Cosmopoliton Club, 22nd Cross, 3rd Block",24510151-f3ec22ec-25f33e-1460114944,Jayanagar,Karnataka,NULL,NULL
5541,Yauatcha,1,560008,12.981994,77.625613,,1,0,NULL,NULL,NULL,NULL,"Level 5, 1 MG Mall Road",95c3f5a2-e7695e4b-17f32c-1460114944,"Central Bangalore",Karnataka,www.yauatcha.com,reservation.bengaluru@yauatchaindia.com
5542,"Yauatcha Terrace",1,560008,12.981994,77.625613,,1,0,NULL,NULL,NULL,NULL,"Level 6, 1 MG Mall Road",2ac45ce6-0a1cd102-0c6e52-1460114944,"Central Bangalore",Karnataka,www.yauatcha.com,reservation.bengaluru@yauatchaindia.com
5543,Tandoor,1,560037,12.956629,77.704682,,1,0,NULL,NULL,NULL,NULL,"28, Centenary Building, MG Road",f88ce07f-3d322022-9ff1a7-1460114944,"Central Bangalore",Karnataka,NULL,NULL
5544,"The Bungalow",1,560066,12.975496,77.729381,,1,0,NULL,NULL,NULL,NULL,"95, Vydehi Hospital",34e06c20-9fd459f0-9391fa-1460114944,Whitefield,Karnataka,www.thebungalows.in,fnb@thebungalows.in
5545,"Berry'd Alive",1,560008,12.967305,77.643309,"+91 96113 48003",1,0,NULL,NULL,NULL,NULL,"1079, 12th Main Road, HAL 2nd Stage",2ea12340-cbff3f31-ea227e-1460114945,Indiranagar,Karnataka,NULL,NULL
5546,"Berry'd Alive",1,560095,12.936915,77.640726,,1,0,NULL,NULL,NULL,NULL,"139, Terra Tree Service Apartments, 1st A Cross Rd, 5th block",c1cc6289-91e5b8dd-0ec553-1460114945,Koramangala,Karnataka,,
5547,"Berry'd Alive",1,560066,12.969807,77.749963,,1,0,NULL,NULL,NULL,NULL,"2nd Floor, Phoenix Market City",9fd7383a-fbffb2f6-be21ab-1460114945,Whitefield,Karnataka,NULL,NULL
5548,"Punjab Grill",1,560095,12.936915,77.640726,"080 40902161",1,0,NULL,NULL,NULL,NULL,"1, SJR Primus, Ground Floor",1bf68a63-d7f53604-acc886-1460114945,Koramangala,Karnataka,www.punjabgrill.in,customercare@lbf.co.in
5549,"Church Street Social",1,560001,12.975399,77.602986,,1,0,NULL,NULL,NULL,NULL,"46/1, Cobalt Building, Church Street",1e62c698-9c68608a-1b107f-1460114945,"Church Street",Karnataka,www.socialoffline.in,hello@socialoffline.in
5550,"Smally's Resto Cafe",1,560008,12.975104,77.604700,"080 88737737",1,0,NULL,NULL,NULL,NULL,"1A, Church Street",81c81f93-a3749821-e022d8-1460114946,"Church Street",Karnataka,www.smallysrestocafe.com,smallysrestocafe@gmail.com
5551,"Smally's Resto Cafe",1,560008,12.991276,77.619465,"080 88737737",1,0,NULL,NULL,NULL,NULL,"5/1, Skywalk, Assaye Road",cb1ebad8-a17d8074-db22e3-1460114946,Ulsoor,Karnataka,www.smallysrestocafe.com,smallysrestocafe@gmail.com
5552,"Smally's Resto Cafe",1,560008,12.981994,77.625613,"080 88737737",1,0,NULL,NULL,NULL,NULL,"8, Burlington Manor, Nehru Main Road",d65ca9e0-bd74c7d2-4b158f-1460114946,Kammanahalli,Karnataka,www.smallysrestocafe.com,smallysrestocafe@gmail.com
5553,Truffles,1,560095,12.936915,77.640726,,1,0,NULL,NULL,NULL,NULL,"28, 4th B Cross R, 5th Block",90571cd9-afb511e1-cc0867-1460114946,Koramangala,Karnataka,NULL,NULL
5554,Truffles,1,560094,13.022225,77.578420,,1,0,NULL,NULL,NULL,NULL,"84, 80 Feet Road, RMV 2nd Stage",8b1ba843-bff57195-23f233-1460114946,"New BEL Road",Karnataka,NULL,NULL
5555,Truffles,1,560001,12.971124,77.600900,,1,0,NULL,NULL,NULL,NULL,"22, St Marks Road",285fcaab-ac232b04-87c4ae-1460114946,"St Marks Road",Karnataka,NULL,NULL
5556,Onesta,1,560034,12.924812,77.633711,"080 69000302",1,0,NULL,NULL,NULL,NULL,"562, 8th Main, 4th Block",6366016d-0827ce13-ed611b-1460114947,Koramangala,Karnataka,www.onesta-onesta.com,NULL
5557,Onesta,1,560038,12.978301,77.637948,"080 69000302",1,0,NULL,NULL,NULL,NULL,"501, Binnamangala Ext, 1st Stage, C.M.H Road",40372d5d-aeba4bf6-9045f8-1460114947,Indiranagar,Karnataka,www.onesta-onesta.com,NULL
5558,"Big Brewsky",1,560035,12.904802,77.682107,"+91 8880075000",1,0,NULL,NULL,NULL,NULL,"Sarjapur Road, Behind MK Retail, Before WIPRO Corporate Office",1579d88c-727a2ca4-71b6a6-1460114947,"Sarjapur Road",Karnataka,www.bigbrewsky.com,
5559,"Vapour Pub & Brewery",1,560038,12.969367,77.641076,,1,0,NULL,NULL,NULL,NULL,"773, HAL 2nd Stage, 100 Feet Road",8d7987fc-4d5ab080-c34318-1460114947,Indiranagar,Karnataka,www.vapour.in,
5560,"AB's - Absolute Barbecues",1,560037,12.963242,77.701775,"+91 8880488809",1,0,NULL,NULL,NULL,NULL,"90/4,3rd Floor, Marathalli Outer Ring Road",476da233-6b6ebe29-a81555-1460114947,Marathahalli,Karnataka,www.absolute-barbecue.com,bookmytable.bgl1@absolute-barbecue.com
5561,"AB's - Absolute Barbecues",1,560076,12.907570,77.600426,"+91 8088922203",1,0,NULL,NULL,NULL,NULL,"CPR Tower, 100 ft Road, 1st Phase, 2nd Stage",796f62de-ca6ebfbe-3b812f-1460114948,"BTM Layout",Karnataka,www.absolute-barbecue.com,bookmytable.bgl1@absolute-barbecue.com
5562,"Lakeview Milkbar",1,560001,12.975914,77.603701,"080 40985220",1,0,NULL,NULL,NULL,NULL,"89, Kannan Building, MG Road",d9586365-99ed691a-b4aeec-1460114948,"MG Road",Karnataka,www.lakeviewmilkbar.com,
5563,"Lakeview Milkbar",1,560038,12.936689,77.626342,"080 25200443",1,0,NULL,NULL,NULL,NULL,"77, 100 Feet Rd, HAL 2nd Stage",f40b968c-76426f00-61cca5-1460114948,Indiranagar,Karnataka,www.lakeviewmilkbar.com,
5564,"Lakeview Milkbar",1,560095,12.938233,77.626175,"080 25715455",1,0,NULL,NULL,NULL,NULL,"80 Feet Road, 8th Block",b5d83432-c897938e-662b7d-1460114948,Koramangala,Karnataka,www.lakeviewmilkbar.com,
5565,"The Fat Fanny's Cafe",1,560095,12.936915,77.640726,"+91 9945475212",1,0,NULL,NULL,NULL,NULL,"V3 Trinity, 1020, 80 Feet Main Road, 1st Block",45e5f769-296aa7d7-27d138-1460114948,Koramangala,Karnataka,www.fatfannycafe.com,NULL
5567,"Mr. Beans - Home Cafe",1,560034,12.930697,77.622123,,1,0,IMG_7266.JPG,image/jpeg,1450822,"2016-05-16 07:52:51","100 Feet Road, Near BDA Complex, 3rd Block",79ccff99-6f51fed1-c94c46-1460139596,Koramangala,Karnataka,www.mrbeans.in,
5568,"Shree Sagar (CTR)",1,560003,13.001857,77.569332,,1,0,NULL,NULL,NULL,NULL,"7th Cross, Margosa Road",79536870-d1c16f1a-628ccc-1460139597,Malleswaram,Karnataka,NULL,NULL
5569,Skyye,1,560001,12.971132,77.597251,,1,0,NULL,NULL,NULL,NULL,"16th Floor, UB City, Vittal Mallya Road",f3535433-49211983-9b1b71-1460139597,"Lavelle Road",Karnataka,NULL,NULL
5570,"Urban Solace - Cafe for the Soul",1,560042,12.983786,77.617343,,1,0,NULL,NULL,NULL,NULL,"32, Annaswamy Mudaliar Road",16364a58-571132cc-63e755-1460139597,Ulsoor,Karnataka,NULL,NULL
5571,"Vidyarthi Bhavan",1,560004,12.945413,77.571292,,1,0,NULL,NULL,NULL,NULL,"32, Gandhi Bazaar, Near Gandhi Bazaar Circle,",1e23eda8-91e531d9-f62055-1460139597,Basavanagudi,Karnataka,NULL,NULL
5572,Mamagoto,1,560038,12.978346,77.640787,,1,0,NULL,NULL,NULL,NULL,"949, 12th Main, Ground Floor",e8b3f6f1-481b71c8-ed7840-1460139933,Indiranagar,Karnataka,NULL,NULL
5573,"Biriyani Zone",1,560066,12.961660,77.718159,,1,0,NULL,NULL,NULL,NULL,"5/3, BEML Layout",0d386bca-f6005d93-acc57b-1460139933,Brookefield,Karnataka,www.biriyanizone.com/_,NULL
5574,"Biriyani Zone",1,560037,12.978694,77.694532,,1,0,NULL,NULL,NULL,NULL,"92/5, Outer Ring Road",047d62e3-733460f9-afe27c-1460139933,Marathahalli,Karnataka,NULL,NULL
5575,"Biriyani Zone",1,560102,12.915932,77.638157,,1,0,NULL,NULL,NULL,NULL,"1548, 19th Main, Outer Ring Road",3794161d-edf56b05-b4f619-1460139933,"HSR Layout",Karnataka,NULL,NULL
5576,"Biriyani Zone",1,560067,12.996701,77.758197,,1,0,NULL,NULL,NULL,NULL,"87/2, GN Plaza, Opposite Sterling Villa Grand, Sigehall",c9e4f5d8-faaf1191-0a15bb-1460139933,Whitefield,Karnataka,NULL,NULL
5577,"Creme and Crust",1,560038,12.978346,77.640787,,1,0,NULL,NULL,NULL,NULL,"57, 100 Feet Road",b7496d15-1c5b0406-2c438a-1460139934,Indiranagar,Karnataka,NULL,NULL
5578,"Om Made Cafe",1,560095,12.936915,77.640726,,1,0,NULL,NULL,NULL,NULL,"136, Ever Green Park, Fourth Floor, 1st Cross",03431355-0edf98f5-db8a54-1460139934,Koramangala,Karnataka,ommadecafe.com/,NULL
5579,"Punjabi by Nature",1,560029,12.934257,77.604399,,1,0,NULL,NULL,NULL,NULL,"6, Krishna Nagar, Hosur Road, Near Forum Mall",e85a68de-790f3473-3ffe83-1460139934,Koramangala,Karnataka,NULL,NULL
5580,"Punjabi by Nature",1,560066,12.972538,77.717732,,1,0,NULL,NULL,NULL,NULL,"Ground Floor, Plot 12, EPIP, Whitefield Road",9eb2db9a-6cecfdfa-55e283-1460139934,Whitefield,Karnataka,NULL,NULL
5581,"Punjabi by Nature",1,560038,12.978346,77.640787,,1,0,NULL,NULL,NULL,NULL,"4031, HAL 2nd Stage, 100 Feet Road",d55c53b8-128deace-6bb391-1460139934,Indiranagar,Karnataka,NULL,NULL
5582,"Chakum Chukum Calcutta On A Roll",1,560038,12.967305,77.643309,,1,0,NULL,NULL,NULL,NULL,"901/2, 7th Main Road, 4th Cross, HAL 2nd Stage",03b112e0-302b1d18-12cfe9-1460139934,Indiranagar,Karnataka,NULL,NULL
5583,"Easy Tiger",1,560001,12.975739,77.602306,,1,0,NULL,NULL,NULL,NULL,"1/A, Church Street",8cd5a960-3b1d0b3d-3c1348-1460139935,"Church Street",Karnataka,NULL,NULL
5584,"Easy Tiger",1,560095,12.938233,77.626175,,1,0,NULL,NULL,NULL,NULL,"897/B, 80 Feet Peripheral Road, 6th Block",1d97ed78-59347480-5ef83b-1460139935,Koramangala,Karnataka,NULL,NULL
5585,"Happy Brew",1,560034,12.924812,77.633711,,1,0,NULL,NULL,NULL,NULL,"40, 4th P Cross, 5th Block",48e4973a-2bd9036b-9cdff3-1460139935,Koramangala,Karnataka,NULL,NULL
5587,"The Biere Club",1,560066,12.969807,77.749963,,1,0,NULL,NULL,NULL,NULL,"153, Biere Street, Behind Forum Value Mall",957fa684-3acfeecd-ae5037-1460139935,Whitefield,Karnataka,www.thebiereclub.com/,NULL
5588,Paradise,1,560038,12.734289,77.379198,,1,0,NULL,NULL,NULL,NULL,"484, Signature Square, CMH Road",c4552ab0-263ca7fe-3a0f74-1460139936,Indiranagar,Karnataka,NULL,NULL
5589,Paradise,1,560078,12.734289,77.379198,,1,0,NULL,NULL,NULL,NULL,"915, 24th Main Road, 2nd Phase",56664368-737a2219-96ecd6-1460139936,"JP Nagar",Karnataka,NULL,NULL
5590,Paradise,1,560034,12.933896,77.630185,,1,0,NULL,NULL,NULL,NULL,"11th Main, 80 feet Main Road, 4th Block",21718e53-6d15cd4b-cd5881-1460139936,Koramangala,Karnataka,NULL,NULL
5591,Paradise,1,560054,13.039290,77.563136,,1,0,NULL,NULL,NULL,NULL,"Vacuum House 1, Chikkamaranahalli",ddf4ec49-01ed2c21-efb34a-1460139936,"New BEL Road",Karnataka,NULL,NULL
5592,Paradise,1,560005,12.998524,77.615394,,1,0,NULL,NULL,NULL,NULL,"Al Noor, Mosque Road",7a410b29-969c929c-bd8ee5-1460139936,"Frazer Town",Karnataka,NULL,NULL
5593,"Nasi And Mee",1,560034,12.924812,77.633711,,1,0,NULL,NULL,NULL,NULL,"974, 80 Feet Road, 4th Block",628e8d27-2112627f-39ca36-1460139936,Koramangala,Karnataka,NULL,NULL
5594,Sattvam,1,560080,13.010303,77.579602,,1,0,NULL,NULL,NULL,NULL,"J.M Plaza, Opposite Shell Petrol Bunk",059cad4b-6c604c70-160074-1460139936,Sadashivanagar,Karnataka,NULL,NULL
5595,MishMash,1,560102,12.911862,77.644592,,1,0,NULL,NULL,NULL,NULL,"2321, 17th Cross, 27th Main Road, Sector 1",ab953daf-db9680f1-170fa4-1460139937,"HSR Layout",Karnataka,,
5596,Esplanade,1,560038,12.979058,77.636618,,1,0,NULL,NULL,NULL,NULL,"203, Double Road",d046a604-97ee4ff2-d5a1a3-1460139937,Indiranagar,Karnataka,NULL,NULL
5597,Esplanade,1,560103,12.929869,77.684837,,1,0,NULL,NULL,NULL,NULL,"Sai Durga Enclave, 833/1",fcbbfeb8-7f50d5a8-fdbb7f-1460139937,Bellandur,Karnataka,NULL,NULL
5598,Barleyz,1,560095,12.936915,77.640726,,1,0,NULL,NULL,NULL,NULL,"2/3, Sony World Junction, 80 Feet Road, 6th Block",9f1ca01b-58b966f8-bb8176-1460208993,Koramangala,Karnataka,www.barleyz.com,NULL
5599,"The Local - Terrace Drinkery",1,560095,12.936915,77.640726,,1,0,NULL,NULL,NULL,NULL,"467, 80 Feet Road, 6th Block",65163dc6-53adca6b-36e3c1-1460208993,Koramangala,Karnataka,NULL,NULL
5600,"Banjara Melting Pot",1,560095,12.936915,77.640726,,1,0,NULL,NULL,NULL,NULL,"32, 80 Feet road,  4th Block",f5d453df-53a35225-ccd850-1460208994,Koramangala,Karnataka,NULL,NULL
5601,"Banjara Melting Pot",1,560052,12.988666,77.593104,,1,0,NULL,NULL,NULL,NULL,"G 117-118, Prestige Centre Point",5016f82d-d0d11c9e-a660b5-1460208994,"Cunningham Road",Karnataka,NULL,NULL
5602,"Gilly's Restobar",1,560095,12.933141,77.614867,,1,0,NULL,NULL,NULL,NULL,"91, Jyothi Nivas College Road, 5th Block",a0b80859-c63d4a63-d0b71e-1460208994,Koramangala,Karnataka,NULL,NULL
5603,"Bite Me Cupcakes",1,560038,12.970550,77.641407,,1,0,NULL,NULL,NULL,NULL,"383, HAL 2nd Stage, 100 Feet Road",a81c352e-a5ad8a85-0f6d50-1460208994,Indiranagar,Karnataka,www.bitemecompany.com/,
5604,"Bite Me Cupcakes",1,560095,12.934702,77.627944,,1,0,NULL,NULL,NULL,NULL,"140/C, 15th Main Road, 4th Block",9d987260-46246eaa-7be297-1460208994,Koramangala,Karnataka,www.bitemecompany.com/,
5605,"Bite Me Cupcakes",1,560001,12.976594,77.599271,,1,0,NULL,NULL,NULL,NULL,"46/1 Cobalt Building",434959c4-b386b7c9-8cbf81-1460208994,"Church Street",Karnataka,www.bitemecompany.com/,
5606,"Mango Tree",1,560078,12.897862,77.584508,,1,0,NULL,NULL,NULL,NULL,"99/4, Nataraja Layout, 7th Phase",acef4ccb-84a53f96-57be86-1460208995,"JP Nagar",Karnataka,NULL,NULL
5608,"Berry'd Alive",1,560038,12.967305,77.643309,,1,0,NULL,NULL,NULL,NULL,"1079, 12th Main, HAL 2nd Stage",f10c7d53-288e1a88-2c8759-1460208995,Indiranagar,Karnataka,NULL,NULL
5609,"Berry'd Alive",1,560066,12.969807,77.749963,,1,0,NULL,NULL,NULL,NULL,"Second Floor, Phoenix Market City",8853d7cc-be4e777c-ce5e49-1460208995,Whitefield,Karnataka,NULL,NULL
5610,"Berry'd Alive",1,560001,12.975399,77.602986,,1,0,NULL,NULL,NULL,NULL,"46-1, Opposite Empire, Church Street",c4a017da-0ef38e8d-6fc48f-1460208995,"Church Street",Karnataka,,
5611,"Connie's Restaurant & Steakhouse",1,560084,13.015067,77.633127,,1,0,NULL,NULL,NULL,NULL,"305, Nehru Road",db4dad64-e0f04d83-e1dd53-1460208995,Kammanahalli,Karnataka,,
5612,"Smoke House Deli",1,560038,12.978346,77.640787,,1,0,NULL,NULL,NULL,NULL,"1209, 100 Feet Road",1498842f-faa0e07a-10d137-1460208996,Indiranagar,Karnataka,www.smokehousedeli.in/,NULL
5613,"Smoke House Deli",1,560001,12.734289,77.379198,,1,0,NULL,NULL,NULL,NULL,"52 & 53, Lavelle Road",5f08753e-e2c2dab6-4f3595-1460208996,"Ashok Nagar",Karnataka,www.smokehousedeli.in/,NULL
5614,"Buff Buffet Buff",1,560095,12.734289,77.379198,,1,0,NULL,NULL,NULL,NULL,"60, Jyothi Nivas College Road, 5th Block, Koramangala Industrial Layout",e75304db-1fb1abe6-89e1a5-1460208996,Koramangala,Karnataka,NULL,NULL
5615,"The Heat Mexican Cafe & Grill",1,560054,12.734289,77.379198,,1,0,NULL,NULL,NULL,NULL,"206, 2nd Floor, Dollars Colony",6b07eda8-05a6eb3e-f45b97-1460208996,"New BEL Road",Karnataka,www.theheatmexican.in/,NULL
5616,"Matteo Coffea",1,560001,12.975646,77.602275,,1,0,NULL,NULL,NULL,NULL,"2, Church Street",7edb37ab-7e631b63-c11e42-1460208996,"Church Street",Karnataka,www.matteocoffea.com/,
5617,"Matteo Coffea",1,560038,12.974507,77.645013,,1,0,NULL,NULL,NULL,NULL,"3rd Stage, Double Road",56fd4bad-392e5f4a-ea052b-1460208996,Indiranagar,Karnataka,www.matteocoffea.com/,
5618,"Don't Tell Mama - The Elite",1,560102,12.911862,77.644592,,1,0,NULL,NULL,NULL,NULL,"14, 13th Cross, 9th Main Road, Sector 6",9fd9b1f5-a10dc92f-73a56c-1460208996,"HSR Layout",Karnataka,NULL,NULL
5619,"Chulha Chauki Da Dhaba",1,560078,12.898773,77.576409,,1,0,NULL,NULL,NULL,NULL,"13, 7th Cross",671bd193-a04b235b-10c3f1-1460208996,"JP Nagar",Karnataka,NULL,NULL
5620,"Chulha Chauki Da Dhaba",1,560066,12.969807,77.749963,,1,0,NULL,NULL,NULL,NULL,"601, 3rd Floor, AECS Layout",7d8a07bd-480970bb-abda33-1460208997,Brookefield,Karnataka,NULL,NULL
5621,"Chulha Chauki Da Dhaba",1,560043,13.020627,77.647885,,1,0,NULL,NULL,NULL,NULL,"404, Masand Square",f2ba2f5b-795cb803-52450e-1460208997,"Kalyan Nagar",Karnataka,NULL,NULL
5622,"The Boozy Griffin",1,560095,12.933141,77.614867,,1,0,NULL,NULL,NULL,NULL,"1st A Cross Road, Jyothi Nivas College Road, 5th Block",e9dada7f-ed34bdfa-dc9ef8-1460208997,Koramangala,Karnataka,NULL,NULL
5623,"Hakuna Matata",1,560078,12.915482,77.585901,,1,0,NULL,NULL,NULL,NULL,"1231/35, 24th Main, 7th Phase",08925f63-ada3f44a-e313fd-1460208997,"JP Nagar",Karnataka,,
5624,"The Krishna Grand",1,560070,12.924871,77.566241,,1,0,NULL,NULL,NULL,NULL,"1, 27th Cross Road, Monotype, Banashankari Stage II",80aad36f-c0901f49-125666-1460208997,Banashankari,Karnataka,thekrishnagrand.in/,NULL
5625,Hangover,1,560038,12.967305,77.643309,,1,0,NULL,NULL,NULL,NULL,"1080, 12th Main, HAL 2nd Stage",610a9270-9bad2cfe-b51cd4-1460208998,Indiranagar,Karnataka,NULL,NULL
5626,"Mani's Dum Biryani",1,560095,12.933141,77.614867,"080 4127 3705",1,0,NULL,NULL,NULL,NULL,"88, K.K.Centre, Jyoti Nivas College Road, 5th Block",04dd791c-f0c23645-f265e5-1460208998,Koramangala,Karnataka,www.manis.in,NULL
5627,"Mani's Dum Biryani",1,560095,12.734289,77.379198,,1,0,NULL,NULL,NULL,NULL,"Ground Floor, 15, 1st Main Road, 1st Block",5974513e-4b2ef54e-2446a3-1460208998,Koramangala,Karnataka,www.manis.in,NULL
5628,"Mani's Dum Biryani",1,560038,12.978346,77.640787,,1,0,NULL,NULL,NULL,NULL,"474, 10th Main, Jeevan Bhima Nagar Main Road, HAL 3rd Stage",a4527222-182364cb-b3b7a8-1460208998,Indiranagar,Karnataka,manis.in/,NULL
5629,"Mani's Dum Biryani",1,560103,12.929547,77.683875,,1,0,NULL,NULL,NULL,NULL,"13, Varadhani Complex, Opp Bangalore Central Mall, Sarjapur Outer Ring Road",9fa5b4fa-6cf3716f-417ac9-1460208998,Bellandur,Karnataka,manis.in/,NULL
5630,"Mani's Dum Biryani",1,560037,12.956629,77.704682,,1,0,NULL,NULL,NULL,NULL,"7, 35/1B, CRM Sowbhagya Annex, Varthur Main Road, Munnekolala",40d0fee0-5c8a2f76-462436-1460208998,Marathahalli,Karnataka,manis.in/,NULL
5631,"China Pearl",1,560095,12.936915,77.640726,"080 4110 5060",1,0,NULL,NULL,NULL,NULL,"53/1, 5th cross, 6th Block",52a70932-5f4fd039-09336b-1460208999,Koramangala,Karnataka,www.chinapearlindia.com,NULL
5632,Shanmukha,1,560037,12.956629,77.704682,,1,0,NULL,NULL,NULL,NULL,"93/7, CN Reddy Plaza, Munnekolahu",9d2498b5-a53d255f-afb29a-1460208999,Marathahalli,Karnataka,NULL,NULL
5633,Shanmukha,1,560069,12.920598,77.594895,,1,0,NULL,NULL,NULL,NULL,"1313, 25th Main Road, 9th Block",5ff0e6c7-39ce44bb-51eb0f-1460208999,Jayanagar,Karnataka,NULL,NULL
5634,Shanmukha,1,560066,12.977539,77.568523,,1,0,NULL,NULL,NULL,NULL,"Hope Farm Junction",c7fc9451-df5cf6b5-d8fa04-1460208999,Whitefield,Karnataka,NULL,NULL
5635,"Bistro Claytopia",1,560095,12.936915,77.640726,,1,0,NULL,NULL,NULL,NULL,"11, 80 Feet Road, 1st Block",70f46496-50b4850e-da6181-1460208999,Koramangala,Karnataka,NULL,NULL
5636,"Mockaholic Restro Beer Cafe",1,560078,12.898773,77.576409,,1,0,NULL,NULL,NULL,NULL,"1107, 24th Main Road",b67d2353-3b45674d-956c9f-1460208999,"JP Nagar",Karnataka,NULL,NULL
5637,"Alibaba Cafe and Restaurant",1,560005,12.997989,77.622651,,1,0,NULL,NULL,NULL,NULL,"69, 1st Floor, M.M Road",0dd01d42-dc11fb94-d0b2d1-1460209000,"Frazer Town",Karnataka,NULL,NULL
5638,"898 Steaks & Grill",1,560095,12.939558,77.625798,,1,0,NULL,NULL,NULL,NULL,"898, 3rd Floor, 80 Feet Road, 6th Block",a5ee4868-14faecbd-54ab31-1460209000,Koramangala,Karnataka,,
5639,"898 Steaks & Grill",1,560100,12.841072,77.644538,,1,0,NULL,NULL,NULL,NULL,"103/2, 5th Floor, Uniworld Building, Neeladhri Nagar",62970005-617414e1-6cd1d1-1460209000,"Electronic City",Karnataka,,
5640,"The Punjabi Rasoi",1,560038,12.978346,77.640787,,1,0,NULL,NULL,NULL,NULL,"152/1, 2nd Main Road",1eb0e7f4-6ffa9720-e6b558-1460209000,Indiranagar,Karnataka,www.thepunjabirasoi.com/,NULL
5641,"The Punjabi Rasoi",1,560102,12.911862,77.644592,,1,0,NULL,NULL,NULL,NULL,"1082, 18th Cross Road, Sector 3",4533ceec-396fb566-c8f833-1460209000,"HSR Layout",Karnataka,www.thepunjabirasoi.com,NULL
5642,"The Punjabi Rasoi",1,560032,13.029799,77.604704,,1,0,NULL,NULL,NULL,NULL,"6, 3rd Floor, 80 Feet Road",05836452-7b37e91d-904cb5-1460209001,"RT Nagar",Karnataka,www.thepunjabirasoi.com/,NULL
5643,"No Limmits Lounge and Club",1,560001,12.969761,77.613398,,1,0,NULL,NULL,NULL,NULL,"8, 2nd Floor, Allied Grande Plaza, Magrath Road",e45c1c47-91fccc28-10bbd8-1460209001,"Brigade Road",Karnataka,NULL,NULL
5644,"Fish & Fries",1,560102,12.911862,77.644592,,1,0,NULL,NULL,NULL,NULL,"1677, 27th Main, 22nd Cross, Sector 2",f6bb7c07-deba190a-95b2b6-1460209001,"HSR Layout",Karnataka,NULL,NULL
5645,"Boca Grande",1,560095,12.936915,77.640726,,1,0,NULL,NULL,NULL,NULL,"606, 8th Block, Bethany High School",1497a02a-8d2b9236-55014e-1460209001,Koramangala,Karnataka,www.bocagrande.in,NULL
5646,"Hanoi - Vietnamese Cuisine",1,560066,12.969807,77.749963,,1,0,NULL,NULL,NULL,NULL,"1st Floor, Phoenix Market City Mall",f89acb8a-812228df-d322c1-1460209001,Whitefield,Karnataka,NULL,NULL
5647,1947,1,560011,12.927514,77.586181,"080 4126 1947",1,0,NULL,NULL,NULL,NULL,"62, The High Street Building",e0393c36-33a9749a-a0c7f3-1460209001,Jayanagar,Karnataka,www.1947restaurant.com,info@1947restaurant.com
5648,1947,1,560085,12.930605,77.543374,"080 2679 1213",1,0,NULL,NULL,NULL,NULL,"296, 2nd Floor, Ram Towers, 100 Feet Road, Near Deve Gowda Petrol Bunk, 3rd Stage",83befc22-120ceb11-8500c0-1460209002,Banashankari,Karnataka,www.1947restaurant.com,info@1947restaurant.com
